~VERSION INFORMATION
VERS.           2.0  :CWLS Log ASCII Standard - VERSION 2.0
WRAP.           NO   :One Line per depth step
CREA. 20000625 21.19 :LAS Creation date <yyyymmdd hh.mm>
#--------------------------------------------------
~WELL INFORMATION
#MNEM.UNIT      DATA             DESCRIPTION
#---- ------ --------------   -----------------------------
STRT .M      4145.7372      :START DEPTH
STOP .M      3918.2040      :STOP DEPTH
STEP .M        -0.1524      :STEP
NULL .          -999.25     :NULL VALUE
COMP .        INPEX BROWSE, LTD.                       :COMPANY
WELL .        GORGONICHTHYS-1                          :WELL
FLD  .        EXPLORATION                              :FIELD
LOC  .        Permit WA-285-P                          :LOCATION
CNTY .        SEDCO-703                                :COUNTY
STAT .        WA                                       :STATE
CTRY .        AUSTRALIA                                :COUNTRY
SRVC .        Schlumberger                             :SERVICE COMPANY
API  .                                                 :API NUMBER
DATE .        13:23:55  Sunday, June 25, 2000          :LOG DATE
UWI  .                                                 :UNIQUE WELL ID
#--------------------------------------------------
~CURVE INFORMATION
#MNEM.UNIT   API CODE DESCRIPTION
#---- -----  -------- -----------------------
DEPTH.M               :DEPTH (BOREHOLE)
DRHO .G/C3            :Bulk Density Correction
PEF  .                :Photoelectric Factor
RHOB .G/C3            :Bulk Density
CALI .IN              :Caliper
TNPH .V/V             :Thermal Neutron Porosity
NPHI .V/V             :Thermal Neutron Porosity (Ratio Method)
CNTC .HZ              :Corrected Near Thermal Counting Rate
CFTC .HZ              :Corrected Far Thermal Counting Rate
GR   .GAPI            :Gamma Ray
T2LM .MS              :T2 Logarithmic Mean
CMRP_3MS.V/V          :CMR 3ms Porosity
TCMR .V/V             :Total CMR Porosity
KTIM .MD              :Permeability from CMR - Timur Model
KSDR .MD              :Permeability from CMR - SDR Model
CMFF .V/V             :CMR Free Fluid
BFV  .V/V             :Bound Fluid Volume
#--------------------------------------------------
~PARAMETER INFORMATION
#MNEM.UNIT    VALUE                      DESCRIPTION
#---- -----   --------------------       ------------------------
PDAT .        L.A.T.                     :Permanent Datum
EPD  .M           0.000000               :Elevation of Permanent Datum above Mean Sea Level
LMF  .          Drill Floor              :Logging Measured From (Name of Logging Elevation Reference)
APD  .M          26.400000               :Elevation of Depth Reference (LMF) above Permanent Datum
#--------------------------------------------------
# 
#    DEPTH       DRHO         PEF        RHOB        CALI        TNPH        NPHI        CNTC        CFTC         GR         T2LM      CMRP_3MS      TCMR        KTIM        KSDR        CMFF         BFV     
#                                                                                                                                                                                                             
~A  
# ...
 4133.5452      -0.005       4.232       2.689       8.373       0.213       0.228    2506.946    1018.583     193.512       1.931       0.021       0.070       0.000       0.000       0.001       0.069
 4133.3928      -0.001       4.204       2.693       8.373       0.218       0.224    2504.939    1006.732     193.512       1.831       0.019       0.066       0.000       0.000       0.002       0.064
 4133.2404       0.000       4.626       2.701       8.373       0.220       0.227    2518.688    1005.500     193.512       1.634       0.019       0.067       0.000       0.000       0.001       0.066
 4133.0880      -0.003       5.186       2.693       8.374       0.223       0.227    2515.255     996.302     193.512       1.647       0.022       0.066       0.000       0.000       0.001       0.065
 4132.9356      -0.002       4.863       2.683       8.373       0.223       0.230    2523.739    1000.052     193.512       1.883       0.023       0.063       0.000       0.000       0.001       0.062
 4132.7832      -0.000       4.143       2.678       8.372       0.218       0.234    2516.449    1010.980     193.512       2.252       0.025       0.066       0.000       0.000       0.003       0.063
 4132.6308      -0.002       3.751       2.681       8.375       0.216       0.229    2516.372    1014.451     193.496       2.169       0.027       0.076       0.001       0.001       0.004       0.072
 4132.4784      -0.004       3.625       2.682       8.381       0.212       0.229    2495.487    1016.983     193.804       2.715       0.033       0.074       0.001       0.001       0.004       0.070
 4132.3260      -0.005       3.813       2.671       8.382       0.213       0.222    2499.729    1017.140     194.541       2.521       0.036       0.079       0.000       0.001       0.002       0.077
 4132.1736      -0.009       3.723       2.651       8.381       0.217       0.223    2492.866    1004.425     193.552       2.391       0.035       0.074       0.000       0.001       0.001       0.073
 4132.0212      -0.012       3.815       2.640       8.381       0.213       0.225    2493.893    1015.406     193.300       2.720       0.036       0.067       0.000       0.001       0.001       0.066
 4131.8688      -0.010       3.714       2.642       8.380       0.216       0.223    2501.266    1008.594     190.725       3.678       0.037       0.054       0.000       0.000       0.001       0.053
 4131.7164      -0.010       3.897       2.650       8.402       0.208       0.225    2512.727    1036.142     190.764       6.105       0.034       0.043       0.000       0.001       0.003       0.041
 4131.5640      -0.010       4.001       2.650       8.414       0.209       0.215    2522.916    1036.300     189.977       2.767       0.034       0.062       0.000       0.000       0.001       0.061
 4131.4116      -0.009       4.020       2.652       8.436       0.213       0.216    2615.241    1065.197     190.394       3.962       0.037       0.058       0.000       0.001       0.002       0.056
 4131.2592      -0.004       4.017       2.660       8.438       0.191       0.208    2839.665    1226.807     190.896       3.180       0.030       0.058       0.000       0.000       0.002       0.056
 4131.1068      -0.002       3.909       2.654       8.416       0.127       0.175    3286.284    1762.864     190.494       2.574       0.025       0.076       0.001       0.001       0.004       0.072
 4130.9544       0.002       3.859       2.640       8.390       0.078       0.108    3919.128    2635.341     190.939       2.217       0.026       0.077       0.002       0.001       0.005       0.072
 4130.8020       0.005       3.697       2.616       8.378       0.046       0.041    4563.007    3734.930     188.058       3.468       0.037       0.079       0.008       0.002       0.010       0.069
 4130.6496       0.005       3.600       2.602       8.379       0.032       0.015    4916.759    4437.720     188.695       3.122       0.040       0.091       0.021       0.003       0.014       0.077
 4130.4972       0.002       3.431       2.582       8.379       0.033       0.017    4942.300    4425.601     188.344       4.800       0.050       0.086       0.021       0.005       0.014       0.072
 4130.3448      -0.001       3.191       2.567       8.436       0.052       0.041    4788.917    3751.905     191.900       8.550       0.070       0.093       0.054       0.022       0.020       0.074
 4130.1924      -0.005       3.116       2.548       8.477       0.073       0.074    4487.586    3093.684     191.636      11.287       0.101       0.120       0.151       0.105       0.026       0.094
 4130.0400      -0.004       3.096       2.545       8.476       0.077       0.081    4245.165    2865.256     191.839      13.196       0.103       0.126       0.343       0.174       0.034       0.092
 4129.8876      -0.002       3.198       2.545       8.476       0.067       0.070    4379.908    3132.029     191.689      11.483       0.112       0.150       0.554       0.268       0.037       0.113
 4129.7352       0.001       3.187       2.548       8.482       0.052       0.045    4753.368    3723.507     187.862      11.481       0.104       0.147       0.501       0.244       0.036       0.110
 4129.5828       0.003       3.226       2.547       8.479       0.044       0.028    4771.252    3942.889     188.261       9.247       0.080       0.126       0.330       0.085       0.034       0.092
 4129.4304       0.006       3.141       2.552       8.467       0.057       0.035    4535.413    3450.890     185.772      11.944       0.069       0.096       0.186       0.049       0.031       0.066
 4129.2780       0.002       2.994       2.578       8.405       0.108       0.105    4163.244    2416.442     188.207      10.634       0.059       0.077       0.045       0.016       0.020       0.057
 4129.1256       0.001       2.938       2.612       8.443       0.181       0.195    3580.480    1593.734     185.861       6.143       0.042       0.067       0.015       0.003       0.015       0.052
 4128.9732      -0.001       3.093       2.657       8.441       0.201       0.249    2970.098    1249.268     187.607       2.664       0.025       0.065       0.002       0.000       0.006       0.059
 4128.8208      -0.004       3.565       2.669       8.441       0.203       0.242    2658.956    1110.661     186.636       2.106       0.013       0.054       0.000       0.000       0.003       0.052
 4128.6684      -0.009       3.878       2.678       8.441       0.210       0.222    2561.326    1049.903     184.315       1.879       0.013       0.055       0.000       0.000       0.002       0.053
 4128.5160      -0.006       4.039       2.688       8.439       0.218       0.221    2528.323    1014.458     176.721       1.743       0.009       0.061       0.000       0.000       0.003       0.058
 4128.3636      -0.003       3.786       2.708       8.443       0.222       0.226    2550.836    1012.456     174.862       2.741       0.013       0.049       0.000       0.000       0.004       0.046
 4128.2112      -0.004       3.879       2.705       8.441       0.220       0.229    2554.841    1020.976     177.223       2.976       0.015       0.040       0.000       0.000       0.002       0.039
 4128.0588      -0.006       3.653       2.688       8.440       0.222       0.226    2566.501    1019.031     181.653       2.529       0.016       0.041       0.000       0.000       0.000       0.041
 4127.9064      -0.007       3.591       2.670       8.441       0.224       0.229    2572.544    1015.991     178.495       2.033       0.012       0.044       0.000       0.000       0.001       0.043
 4127.7540      -0.012       3.616       2.665       8.440       0.227       0.232    2598.347    1019.699     172.706       2.184       0.013       0.065       0.001       0.000       0.003       0.061
 4127.6016      -0.011       3.855       2.678       8.440       0.223       0.233    2589.716    1026.612     170.620       1.786       0.012       0.083       0.002       0.001       0.005       0.078
