~VERSION INFORMATION
VERS.           2.0  :CWLS Log ASCII Standard - VERSION 2.0
WRAP.           NO   :One Line per depth step
CREA. 20000625 21.19 :LAS Creation date <yyyymmdd hh.mm>
#--------------------------------------------------
~WELL INFORMATION
#MNEM.UNIT      DATA             DESCRIPTION
#---- ------ --------------   -----------------------------
STRT .M      4145.7372      :START DEPTH
STOP .M      3918.2040      :STOP DEPTH
STEP .M        -0.1524      :STEP
NULL .          -999.25     :NULL VALUE
COMP .        INPEX BROWSE, LTD.                       :COMPANY
WELL .        GORGONICHTHYS-1                          :WELL
FLD  .        EXPLORATION                              :FIELD
LOC  .        Permit WA-285-P                          :LOCATION
CNTY .        SEDCO-703                                :COUNTY
STAT .        WA                                       :STATE
CTRY .        AUSTRALIA                                :COUNTRY
SRVC .        Schlumberger                             :SERVICE COMPANY
API  .                                                 :API NUMBER
DATE .        13:23:55  Sunday, June 25, 2000          :LOG DATE
UWI  .                                                 :UNIQUE WELL ID
#--------------------------------------------------
~CURVE INFORMATION
#MNEM.UNIT   API CODE DESCRIPTION
#---- -----  -------- -----------------------
DEPTH.M               :DEPTH (BOREHOLE)
DRHO .G/C3            :Bulk Density Correction
PEF  .                :Photoelectric Factor
RHOB .G/C3            :Bulk Density
CALI .IN              :Caliper
TNPH .V/V             :Thermal Neutron Porosity
NPHI .V/V             :Thermal Neutron Porosity (Ratio Method)
CNTC .HZ              :Corrected Near Thermal Counting Rate
CFTC .HZ              :Corrected Far Thermal Counting Rate
GR   .GAPI            :Gamma Ray
T2LM .MS              :T2 Logarithmic Mean
CMRP_3MS.V/V          :CMR 3ms Porosity
TCMR .V/V             :Total CMR Porosity
KTIM .MD              :Permeability from CMR - Timur Model
KSDR .MD              :Permeability from CMR - SDR Model
CMFF .V/V             :CMR Free Fluid
BFV  .V/V             :Bound Fluid Volume
#--------------------------------------------------
~PARAMETER INFORMATION
#MNEM.UNIT    VALUE                      DESCRIPTION
#---- -----   --------------------       ------------------------
PDAT .        L.A.T.                     :Permanent Datum
EPD  .M           0.000000               :Elevation of Permanent Datum above Mean Sea Level
LMF  .          Drill Floor              :Logging Measured From (Name of Logging Elevation Reference)
APD  .M          26.400000               :Elevation of Depth Reference (LMF) above Permanent Datum
#--------------------------------------------------
# 
#    DEPTH       DRHO         PEF        RHOB        CALI        TNPH        NPHI        CNTC        CFTC         GR         T2LM      CMRP_3MS      TCMR        KTIM        KSDR        CMFF         BFV     
#                                                                                                                                                                                                             
~A  
# ...
 3956.7612       0.103       6.316       2.491       9.371       0.056       0.052    4117.335    3067.143      59.199      14.436       0.156       0.176       1.059       0.809       0.044       0.133
 3956.6088       0.095       6.185       2.503       9.391       0.046       0.022    4376.154    3472.549      69.446      17.199       0.130       0.146       0.818       0.540       0.043       0.103
 3956.4564       0.081       5.875       2.501       9.320       0.043       0.015    4721.653    3844.649      58.531      15.801       0.117       0.131       0.541       0.291       0.039       0.091
 3956.3040       0.070       5.276       2.506       9.253       0.038       0.018    4923.874    4141.624      47.995      17.692       0.107       0.120       0.519       0.263       0.040       0.080
 3956.1516       0.062       4.917       2.510       9.286       0.039       0.024    4836.306    4055.370      44.240      27.785       0.091       0.096       0.429       0.266       0.040       0.056
 3955.9992       0.073       4.649       2.531       9.605       0.048       0.031    4771.085    3720.433      50.590      20.081       0.095       0.105       0.299       0.196       0.035       0.070
 3955.8468       0.057       4.980       2.513       9.523       0.052       0.040    4814.120    3658.156      58.570      20.315       0.107       0.115       0.270       0.288       0.032       0.082
 3955.6944       0.035       5.376       2.479       9.411       0.044       0.032    4878.162    3917.486      48.906      15.515       0.111       0.124       0.197       0.227       0.028       0.096
 3955.5420       0.021       6.033       2.478       9.044       0.033       0.022    5127.274    4534.714      41.652       9.554       0.121       0.154       0.183       0.205       0.024       0.130
 3955.3896       0.013       4.702       2.488       8.652       0.031       0.016    5425.501    4940.826      29.546      11.645       0.121       0.153       0.220       0.295       0.026       0.127
 3955.2372      -0.000       3.791       2.512       8.655       0.029       0.016    5643.937    5187.646      28.821      10.772       0.107       0.141       0.147       0.186       0.023       0.119
 3955.0848      -0.003       2.815       2.507       8.650       0.029       0.017    5731.799    5273.305      28.038      14.794       0.096       0.115       0.125       0.153       0.024       0.091
 3954.9324      -0.005       2.391       2.492       8.645       0.030       0.017    5735.462    5229.802      27.430      22.249       0.083       0.084       0.075       0.097       0.024       0.060
 3954.7800      -0.009       2.130       2.472       8.638       0.032       0.020    5688.008    5127.754      25.492      22.182       0.067       0.067       0.071       0.039       0.025       0.042
 3954.6276      -0.010       2.082       2.467       8.639       0.039       0.023    5651.569    4814.013      23.976      23.254       0.057       0.057       0.047       0.022       0.023       0.034
 3954.4752      -0.013       2.026       2.465       8.639       0.044       0.030    5544.311    4568.596      23.029      21.108       0.060       0.060       0.034       0.024       0.020       0.040
 3954.3228      -0.016       1.999       2.464       8.639       0.046       0.036    5305.851    4302.937      22.463      18.444       0.060       0.062       0.022       0.021       0.017       0.045
 3954.1704      -0.010       2.060       2.465       8.639       0.055       0.042    4901.134    3759.979      25.665      21.703       0.066       0.068       0.024       0.039       0.017       0.050
 3954.0180       0.020       2.717       2.473       8.732       0.073       0.073    4410.376    3028.051      29.850      23.578       0.073       0.073       0.068       0.064       0.024       0.049
 3953.8656       0.057       3.570       2.406       9.152       0.107       0.114    3914.387    2247.079      42.695      23.391       0.079       0.079       0.191       0.087       0.033       0.047
 3953.7132       0.058       4.786       2.228       9.430       0.111       0.141    3453.488    1935.692      54.420      22.552       0.081       0.085       0.487       0.105       0.042       0.043
 3953.5608       0.064       5.614       2.069      10.036       0.088       0.120    3207.502    1962.419      65.210       8.813       0.181       0.214       0.682       0.647       0.033       0.181
 3953.4084       0.059       9.635       1.967      11.908       0.061       0.067    3185.094    2149.515      65.943       7.216       0.339       0.403       0.699       5.477       0.020       0.383
 3953.2560       0.023      15.561       1.904      13.315       0.041       0.029    3163.081    2336.342      57.903       6.184       0.494       0.613       0.004      21.663       0.001       0.612
 3953.1036       0.012      21.086       1.897      13.363       0.047       0.021    3126.310    2226.617      55.365       6.022       0.515       0.640       0.000      24.376       0.000       0.640
 3952.9512       0.023      20.555       1.910      13.295       0.068       0.041    3028.082    1907.266      60.040       6.172       0.436       0.542       0.000      13.171       0.000       0.542
 3952.7988       0.020      20.099       1.934      13.141       0.093       0.080    2881.625    1611.545      73.194       6.230       0.319       0.395       0.000       3.784       0.000       0.395
 3952.6464       0.033      19.328       2.028      11.212       0.098       0.108    2778.143    1584.781      77.038       6.256       0.162       0.204       0.000       0.271       0.001       0.203
 3952.4940       0.054      17.501       2.082      10.188       0.087       0.097    2784.613    1704.644      73.535       5.779       0.131       0.172       0.000       0.117       0.001       0.171
 3952.3416       0.071      15.775       2.086      11.563       0.072       0.061    2818.952    1810.711      70.525       5.904       0.093       0.122       0.000       0.031       0.001       0.120
 3952.1892       0.045      13.796       2.040      11.246       0.076       0.048    2899.373    1834.830      77.111       5.831       0.057       0.071       0.000       0.003       0.001       0.070
 3952.0368       0.075      13.277       2.154      10.770       0.086       0.058    2911.502    1772.527      84.916      10.652       0.020       0.021       0.000       0.000       0.004       0.017
 3951.8844       0.091      12.268       2.203      10.899       0.090       0.076    2833.413    1689.098      85.331      16.168       0.024       0.024       0.000       0.000       0.006       0.018
 3951.7320       0.057      12.432       2.057      12.189       0.088       0.084    2722.412    1590.257      79.065      10.615       0.033       0.034       0.000       0.001       0.005       0.029
 3951.5796       0.010      15.066       1.877      12.599       0.090       0.092    2604.014    1492.815      77.158       3.958       0.027       0.053       0.003       0.000       0.009       0.044
 3951.4272       0.009      22.982       1.828      12.572       0.102       0.094    2512.150    1367.603      82.342       3.325       0.035       0.065       0.002       0.001       0.007       0.059
 3951.2748       0.007      26.776       1.820      11.090       0.121       0.105    2486.555    1289.518      78.798       3.888       0.035       0.063       0.002       0.001       0.006       0.056
 3951.1224       0.006      25.057       1.815      12.222       0.110       0.103    2488.616    1318.908      73.820       6.044       0.027       0.043       0.001       0.001       0.005       0.038
 3950.9700       0.001      25.155       1.783      12.335       0.091       0.096    2517.083    1440.942      77.263      13.342       0.028       0.029       0.000       0.001       0.004       0.026
 3950.8176      -0.017      25.454       1.750      12.329       0.082       0.082    2538.319    1517.295      94.455      22.811       0.016       0.016       0.000       0.000       0.003       0.013
