~VERSION INFORMATION
VERS.           2.0  :CWLS Log ASCII Standard - VERSION 2.0
WRAP.           NO   :One Line per depth step
CREA. 20000625 21.19 :LAS Creation date <yyyymmdd hh.mm>
#--------------------------------------------------
~WELL INFORMATION
#MNEM.UNIT      DATA             DESCRIPTION
#---- ------ --------------   -----------------------------
STRT .M      4145.7372      :START DEPTH
STOP .M      3918.2040      :STOP DEPTH
STEP .M        -0.1524      :STEP
NULL .          -999.25     :NULL VALUE
COMP .        INPEX BROWSE, LTD.                       :COMPANY
WELL .        GORGONICHTHYS-1                          :WELL
FLD  .        EXPLORATION                              :FIELD
LOC  .        Permit WA-285-P                          :LOCATION
CNTY .        SEDCO-703                                :COUNTY
STAT .        WA                                       :STATE
CTRY .        AUSTRALIA                                :COUNTRY
SRVC .        Schlumberger                             :SERVICE COMPANY
API  .                                                 :API NUMBER
DATE .        13:23:55  Sunday, June 25, 2000          :LOG DATE
UWI  .                                                 :UNIQUE WELL ID
#--------------------------------------------------
~CURVE INFORMATION
#MNEM.UNIT   API CODE DESCRIPTION
#---- -----  -------- -----------------------
DEPTH.M               :DEPTH (BOREHOLE)
DRHO .G/C3            :Bulk Density Correction
PEF  .                :Photoelectric Factor
RHOB .G/C3            :Bulk Density
CALI .IN              :Caliper
TNPH .V/V             :Thermal Neutron Porosity
NPHI .V/V             :Thermal Neutron Porosity (Ratio Method)
CNTC .HZ              :Corrected Near Thermal Counting Rate
CFTC .HZ              :Corrected Far Thermal Counting Rate
GR   .GAPI            :Gamma Ray
T2LM .MS              :T2 Logarithmic Mean
CMRP_3MS.V/V          :CMR 3ms Porosity
TCMR .V/V             :Total CMR Porosity
KTIM .MD              :Permeability from CMR - Timur Model
KSDR .MD              :Permeability from CMR - SDR Model
CMFF .V/V             :CMR Free Fluid
BFV  .V/V             :Bound Fluid Volume
#--------------------------------------------------
~PARAMETER INFORMATION
#MNEM.UNIT    VALUE                      DESCRIPTION
#---- -----   --------------------       ------------------------
PDAT .        L.A.T.                     :Permanent Datum
EPD  .M           0.000000               :Elevation of Permanent Datum above Mean Sea Level
LMF  .          Drill Floor              :Logging Measured From (Name of Logging Elevation Reference)
APD  .M          26.400000               :Elevation of Depth Reference (LMF) above Permanent Datum
#--------------------------------------------------
# 
#    DEPTH       DRHO         PEF        RHOB        CALI        TNPH        NPHI        CNTC        CFTC         GR         T2LM      CMRP_3MS      TCMR        KTIM        KSDR        CMFF         BFV     
#                                                                                                                                                                                                             
~A  
# ...
 4115.2572      -0.007       3.530       2.615       8.404       0.086       0.104    3764.420    2429.083     125.925       9.527       0.037       0.053       0.022       0.003       0.018       0.034
 4115.1048      -0.011       3.580       2.572       8.390       0.059       0.040    4285.899    3219.268      84.776      15.100       0.042       0.059       0.168       0.011       0.032       0.027
 4114.9524      -0.010       3.484       2.534       8.426       0.052       0.021    4710.747    3687.947      46.606      40.828       0.056       0.059       0.553       0.079       0.043       0.016
 4114.8000      -0.010       3.174       2.499       8.439       0.050       0.032    5029.720    3999.289      25.571      58.935       0.075       0.075       2.742       0.451       0.058       0.017
 4114.6476      -0.006       3.013       2.486       8.470       0.051       0.044    5056.747    3978.476      26.843      63.648       0.078       0.078       3.314       0.586       0.061       0.017
 4114.4952      -0.008       3.085       2.473       8.475       0.048       0.051    4930.830    3975.870      26.461      63.906       0.079       0.079       3.857       0.645       0.063       0.017
 4114.3428      -0.005       3.230       2.483       8.514       0.038       0.040    4832.973    4163.202      26.653      58.612       0.081       0.081       4.222       0.594       0.063       0.019
 4114.1904      -0.005       3.097       2.487       8.499       0.031       0.029    4715.807    4300.585      29.337      67.392       0.071       0.071       2.022       0.456       0.057       0.014
 4114.0380      -0.005       2.911       2.493       8.465       0.039       0.023    4677.401    4024.055      34.352      64.510       0.080       0.080       3.955       0.682       0.062       0.018
 4113.8856      -0.004       2.927       2.493       8.469       0.046       0.034    4474.415    3640.012      35.163      54.832       0.086       0.086       4.431       0.671       0.064       0.023
 4113.7332      -0.002       2.979       2.496       8.464       0.062       0.048    4166.850    3065.476      36.366      28.210       0.084       0.105       2.646       0.383       0.063       0.042
 4113.5808      -0.004       3.049       2.497       8.439       0.078       0.078    3909.674    2624.890      44.057      47.768       0.077       0.087       1.934       0.512       0.056       0.030
 4113.4284       0.000       2.931       2.513       8.414       0.108       0.101    3684.255    2136.985      65.702      21.544       0.069       0.098       1.087       0.173       0.051       0.047
 4113.2760       0.006       3.030       2.535       8.416       0.132       0.127    3516.677    1849.852      87.507      25.083       0.063       0.092       1.135       0.178       0.051       0.040
 4113.1236       0.005       2.860       2.543       8.471       0.133       0.137    3514.425    1841.414      99.968      20.300       0.055       0.090       1.092       0.110       0.051       0.040
 4112.9712       0.005       2.862       2.531       8.491       0.106       0.128    3766.837    2204.220      81.465      29.058       0.057       0.083       1.323       0.159       0.052       0.031
 4112.8188       0.005       2.611       2.514       8.470       0.088       0.097    4036.165    2577.627      57.551      20.877       0.056       0.087       1.238       0.102       0.052       0.036
 4112.6664       0.004       2.648       2.494       8.463       0.067       0.067    4274.410    3056.423      35.994      23.209       0.066       0.100       2.577       0.217       0.062       0.039
 4112.5140       0.000       2.513       2.488       8.472       0.062       0.050    4469.470    3284.348      34.733      33.843       0.072       0.092       2.195       0.332       0.059       0.034
 4112.3616       0.001       2.564       2.497       8.444       0.058       0.053    4653.077    3500.379      36.851      69.700       0.072       0.075       0.928       0.616       0.047       0.028
 4112.2092       0.002       2.582       2.505       8.436       0.060       0.052    4774.689    3563.535      40.732      74.103       0.078       0.079       1.063       0.859       0.049       0.030
 4112.0568       0.002       2.611       2.502       8.440       0.059       0.048    4934.940    3699.462      40.413      79.978       0.081       0.081       1.378       1.112       0.052       0.029
 4111.9044      -0.003       2.571       2.476       8.426       0.056       0.041    5141.016    3938.521      40.271      72.481       0.085       0.086       2.031       1.154       0.057       0.029
 4111.7520      -0.005       2.513       2.458       8.402       0.051       0.039    5317.776    4184.145      32.451      46.658       0.088       0.101       3.125       0.899       0.064       0.037
 4111.5996      -0.007       2.317       2.448       8.406       0.050       0.038    5455.645    4346.431      26.797      43.036       0.095       0.115       8.949       1.300       0.080       0.035
 4111.4472      -0.010       2.214       2.439       8.406       0.048       0.042    5468.056    4401.904      21.629      65.895       0.098       0.107      16.404       2.249       0.083       0.023
 4111.2948      -0.012       2.138       2.434       8.405       0.050       0.042    5428.398    4314.630      20.734      41.122       0.105       0.123      11.355       1.536       0.085       0.038
 4111.1424      -0.012       2.203       2.439       8.406       0.052       0.044    5393.827    4239.342      21.915      46.262       0.107       0.120      11.190       1.781       0.084       0.036
 4110.9900      -0.013       2.243       2.448       8.406       0.053       0.045    5375.588    4194.634      23.708      49.610       0.114       0.121       9.392       2.103       0.082       0.039
 4110.8376      -0.014       2.335       2.452       8.405       0.048       0.044    5412.181    4360.881      24.522      50.640       0.110       0.114       5.116       1.718       0.072       0.041
 4110.6852      -0.015       2.371       2.451       8.406       0.045       0.038    5449.351    4464.448      24.230      35.554       0.111       0.124       4.844       1.205       0.073       0.051
 4110.5328      -0.014       2.410       2.454       8.404       0.043       0.035    5518.781    4610.825      22.774      62.993       0.101       0.101       6.523       1.620       0.072       0.028
 4110.3804      -0.015       2.311       2.456       8.406       0.042       0.032    5533.672    4639.147      22.295      57.678       0.094       0.095       7.424       1.102       0.072       0.024
 4110.2280      -0.013       2.237       2.466       8.405       0.041       0.031    5567.887    4718.039      22.073      71.584       0.085       0.085       6.085       1.067       0.068       0.017
 4110.0756      -0.012       2.199       2.470       8.406       0.041       0.031    5606.197    4755.516      21.959     104.029       0.073       0.073       3.307       1.248       0.068       0.006
 4109.9232      -0.011       2.217       2.471       8.405       0.040       0.029    5645.548    4792.338      21.778     107.103       0.076       0.077       4.102       1.631       0.068       0.009
 4109.7708      -0.010       2.236       2.463       8.405       0.041       0.029    5644.591    4762.032      21.397      70.114       0.074       0.084       5.505       0.982       0.066       0.018
 4109.6184      -0.008       2.276       2.465       8.405       0.044       0.031    5668.995    4686.183      21.586      32.878       0.073       0.103       5.277       0.493       0.071       0.033
 4109.4660      -0.010       2.283       2.464       8.404       0.047       0.036    5603.289    4551.689      20.621      16.562       0.076       0.129       3.176       0.307       0.067       0.063
 4109.3136      -0.009       2.241       2.464       8.405       0.046       0.041    5506.638    4499.142      21.455      30.749       0.086       0.117       3.508       0.710       0.068       0.049
