~VERSION INFORMATION
VERS.           2.0  :CWLS Log ASCII Standard - VERSION 2.0
WRAP.           NO   :One Line per depth step
CREA. 20000625 21.19 :LAS Creation date <yyyymmdd hh.mm>
#--------------------------------------------------
~WELL INFORMATION
#MNEM.UNIT      DATA             DESCRIPTION
#---- ------ --------------   -----------------------------
STRT .M      4145.7372      :START DEPTH
STOP .M      3918.2040      :STOP DEPTH
STEP .M        -0.1524      :STEP
NULL .          -999.25     :NULL VALUE
COMP .        INPEX BROWSE, LTD.                       :COMPANY
WELL .        GORGONICHTHYS-1                          :WELL
FLD  .        EXPLORATION                              :FIELD
LOC  .        Permit WA-285-P                          :LOCATION
CNTY .        SEDCO-703                                :COUNTY
STAT .        WA                                       :STATE
CTRY .        AUSTRALIA                                :COUNTRY
SRVC .        Schlumberger                             :SERVICE COMPANY
API  .                                                 :API NUMBER
DATE .        13:23:55  Sunday, June 25, 2000          :LOG DATE
UWI  .                                                 :UNIQUE WELL ID
#--------------------------------------------------
~CURVE INFORMATION
#MNEM.UNIT   API CODE DESCRIPTION
#---- -----  -------- -----------------------
DEPTH.M               :DEPTH (BOREHOLE)
DRHO .G/C3            :Bulk Density Correction
PEF  .                :Photoelectric Factor
RHOB .G/C3            :Bulk Density
CALI .IN              :Caliper
TNPH .V/V             :Thermal Neutron Porosity
NPHI .V/V             :Thermal Neutron Porosity (Ratio Method)
CNTC .HZ              :Corrected Near Thermal Counting Rate
CFTC .HZ              :Corrected Far Thermal Counting Rate
GR   .GAPI            :Gamma Ray
T2LM .MS              :T2 Logarithmic Mean
CMRP_3MS.V/V          :CMR 3ms Porosity
TCMR .V/V             :Total CMR Porosity
KTIM .MD              :Permeability from CMR - Timur Model
KSDR .MD              :Permeability from CMR - SDR Model
CMFF .V/V             :CMR Free Fluid
BFV  .V/V             :Bound Fluid Volume
#--------------------------------------------------
~PARAMETER INFORMATION
#MNEM.UNIT    VALUE                      DESCRIPTION
#---- -----   --------------------       ------------------------
PDAT .        L.A.T.                     :Permanent Datum
EPD  .M           0.000000               :Elevation of Permanent Datum above Mean Sea Level
LMF  .          Drill Floor              :Logging Measured From (Name of Logging Elevation Reference)
APD  .M          26.400000               :Elevation of Depth Reference (LMF) above Permanent Datum
#--------------------------------------------------
# 
#    DEPTH       DRHO         PEF        RHOB        CALI        TNPH        NPHI        CNTC        CFTC         GR         T2LM      CMRP_3MS      TCMR        KTIM        KSDR        CMFF         BFV     
#                                                                                                                                                                                                             
~A  
# ...
 3999.4332       0.002       3.345       2.649       8.541       0.125       0.119    3454.966    1868.920     103.207       7.584       0.015       0.036       0.002       0.000       0.008       0.027
 3999.2808       0.003       3.596       2.670       8.549       0.129       0.136    3400.495    1808.481     108.130       3.043       0.006       0.025       0.000       0.000       0.004       0.022
 3999.1284       0.004       3.716       2.672       8.564       0.122       0.131    3379.335    1848.149     100.491       1.626       0.003       0.032       0.000       0.000       0.003       0.029
 3998.9760       0.005       3.612       2.663       8.563       0.114       0.119    3454.379    1956.426      93.315       2.217       0.003       0.025       0.000       0.000       0.002       0.023
 3998.8236       0.006       3.377       2.647       8.561       0.109       0.110    3458.136    1999.333      85.834       5.422       0.013       0.021       0.000       0.000       0.001       0.020
 3998.6712       0.003       3.266       2.634       8.537       0.114       0.111    3436.768    1948.597      82.872       3.709       0.012       0.018       0.000       0.000       0.001       0.017
 3998.5188       0.006       3.126       2.636       8.534       0.118       0.126    3332.469    1851.553      84.234       2.713       0.011       0.027       0.000       0.000       0.003       0.023
 3998.3664       0.007       3.144       2.636       8.533       0.128       0.132    3241.204    1731.674      89.340       7.224       0.016       0.019       0.000       0.000       0.002       0.017
 3998.2140       0.005       2.989       2.623       8.525       0.133       0.145    3220.479    1691.196     101.592       2.238       0.013       0.033       0.000       0.000       0.002       0.030
 3998.0616       0.005       3.081       2.623       8.519       0.129       0.134    3213.153    1710.322     102.197       1.496       0.007       0.051       0.000       0.000       0.004       0.047
 3997.9092       0.007       3.218       2.628       8.517       0.111       0.125    3214.262    1846.151     100.520       2.864       0.016       0.042       0.000       0.000       0.004       0.038
 3997.7568       0.007       3.385       2.655       8.518       0.095       0.111    3352.159    2068.005      91.574       2.345       0.012       0.042       0.000       0.000       0.005       0.037
 3997.6044       0.004       3.571       2.660       8.509       0.088       0.092    3472.934    2216.006      83.389       8.313       0.019       0.024       0.000       0.000       0.006       0.018
 3997.4520       0.002       3.201       2.654       8.497       0.086       0.080    3440.303    2218.300      80.570      12.551       0.016       0.017       0.000       0.000       0.006       0.011
 3997.2996       0.002       2.953       2.650       8.504       0.101       0.084    3558.120    2130.771      86.457       3.401       0.006       0.014       0.000       0.000       0.006       0.008
 3997.1472      -0.001       2.876       2.646       8.545       0.110       0.101    3630.887    2089.509      95.907       1.574       0.003       0.018       0.000       0.000       0.003       0.015
 3996.9948      -0.004       3.026       2.650       8.552       0.115       0.108    3528.963    1990.868      97.721      32.706       0.004       0.005       0.000       0.000       0.003       0.002
 3996.8424      -0.003       3.108       2.653       8.559       0.123       0.127    3598.657    1960.024     101.269       1.652       0.004       0.025       0.000       0.000       0.003       0.022
 3996.6900       0.003       3.353       2.674       8.557       0.110       0.130    3963.816    2276.754      88.927       3.438       0.008       0.031       0.000       0.000       0.005       0.026
 3996.5376       0.002       3.765       2.660       8.558       0.063       0.103    4441.875    3237.211      70.240       5.795       0.015       0.036       0.001       0.000       0.006       0.030
 3996.3852      -0.001       3.986       2.628       8.557       0.030       0.036    5013.876    4594.922      40.780       5.030       0.021       0.057       0.017       0.001       0.016       0.040
 3996.2328      -0.005       3.671       2.570       8.557       0.015       0.007    5664.060    5926.182      28.798      26.810       0.034       0.048       0.097       0.015       0.028       0.021
 3996.0804      -0.008       3.073       2.543       8.558       0.009       0.004    6164.507    6800.745      25.206      47.979       0.041       0.048       0.131       0.049       0.031       0.017
 3995.9280      -0.014       3.008       2.529       8.558       0.007       0.004    6437.372    7263.322      24.049      78.204       0.040       0.044       0.099       0.093       0.032       0.012
 3995.7756      -0.017       2.907       2.542       8.558       0.005       0.005    6532.995    7550.597      23.904     126.192       0.040       0.040       0.058       0.162       0.030       0.010
 3995.6232      -0.015       3.110       2.576       8.565       0.003       0.004    6643.652    7884.060      24.400     145.125       0.036       0.036       0.032       0.142       0.027       0.009
 3995.4708      -0.011       3.279       2.617       8.607      -0.001       0.002    6805.986    8394.013      25.131      19.740       0.028       0.045       0.043       0.006       0.023       0.022
 3995.3184      -0.010       3.419       2.650       8.626      -0.005      -0.000    6966.638    8980.517      25.147       8.172       0.015       0.035       0.007       0.000       0.014       0.021
 3995.1660      -0.008       3.454       2.675       8.627      -0.008      -0.002    7079.091    9544.433      24.399       4.470       0.011       0.038       0.002       0.000       0.008       0.029
 3995.0136      -0.004       3.605       2.690       8.616      -0.009      -0.003    7162.615    9751.042      22.398       3.127       0.005       0.022       0.000       0.000       0.005       0.017
 3994.8612       0.000       3.600       2.696       8.600      -0.008      -0.003    7133.835    9577.504      21.354     101.911       0.005       0.005       0.000       0.000       0.005       0.000
 3994.7088      -0.001       3.649       2.674       8.600      -0.006      -0.002    6985.575    9183.558      21.533      64.268       0.015       0.018       0.000       0.002       0.012       0.006
 3994.5564       0.001       3.451       2.660       8.599      -0.002      -0.000    6787.597    8491.296      23.533     117.967       0.012       0.012       0.000       0.001       0.011       0.001
 3994.4040       0.001       3.612       2.637       8.600       0.003       0.002    6616.339    7769.351      27.477      25.245       0.013       0.014       0.000       0.000       0.009       0.004
 3994.2516       0.001       3.664       2.629       8.599       0.008       0.005    6415.571    7207.693      30.410      18.319       0.023       0.034       0.006       0.002       0.014       0.020
 3994.0992      -0.003       3.952       2.611       8.597       0.008       0.006    6204.537    6954.215      30.477       7.524       0.029       0.056       0.003       0.002       0.009       0.047
 3993.9468      -0.002       3.845       2.604       8.585       0.011       0.007    5946.228    6424.259      34.988      16.067       0.028       0.043       0.002       0.004       0.008       0.035
 3993.7944      -0.003       3.940       2.594       8.580       0.021       0.011    5729.280    5662.295      47.490       8.625       0.041       0.068       0.005       0.006       0.009       0.059
 3993.6420      -0.004       3.630       2.574       8.574       0.033       0.019    5553.599    4974.510      55.131      16.568       0.050       0.063       0.012       0.018       0.014       0.050
 3993.4896      -0.003       3.129       2.556       8.569       0.040       0.025    5267.630    4492.052      54.789      34.702       0.057       0.063       0.075       0.075       0.026       0.037
