~VERSION INFORMATION
VERS.           2.0  :CWLS Log ASCII Standard - VERSION 2.0
WRAP.           NO   :One Line per depth step
CREA. 20000625 21.19 :LAS Creation date <yyyymmdd hh.mm>
#--------------------------------------------------
~WELL INFORMATION
#MNEM.UNIT      DATA             DESCRIPTION
#---- ------ --------------   -----------------------------
STRT .M      4145.7372      :START DEPTH
STOP .M      3918.2040      :STOP DEPTH
STEP .M        -0.1524      :STEP
NULL .          -999.25     :NULL VALUE
COMP .        INPEX BROWSE, LTD.                       :COMPANY
WELL .        GORGONICHTHYS-1                          :WELL
FLD  .        EXPLORATION                              :FIELD
LOC  .        Permit WA-285-P                          :LOCATION
CNTY .        SEDCO-703                                :COUNTY
STAT .        WA                                       :STATE
CTRY .        AUSTRALIA                                :COUNTRY
SRVC .        Schlumberger                             :SERVICE COMPANY
API  .                                                 :API NUMBER
DATE .        13:23:55  Sunday, June 25, 2000          :LOG DATE
UWI  .                                                 :UNIQUE WELL ID
#--------------------------------------------------
~CURVE INFORMATION
#MNEM.UNIT   API CODE DESCRIPTION
#---- -----  -------- -----------------------
DEPTH.M               :DEPTH (BOREHOLE)
DRHO .G/C3            :Bulk Density Correction
PEF  .                :Photoelectric Factor
RHOB .G/C3            :Bulk Density
CALI .IN              :Caliper
TNPH .V/V             :Thermal Neutron Porosity
NPHI .V/V             :Thermal Neutron Porosity (Ratio Method)
CNTC .HZ              :Corrected Near Thermal Counting Rate
CFTC .HZ              :Corrected Far Thermal Counting Rate
GR   .GAPI            :Gamma Ray
T2LM .MS              :T2 Logarithmic Mean
CMRP_3MS.V/V          :CMR 3ms Porosity
TCMR .V/V             :Total CMR Porosity
KTIM .MD              :Permeability from CMR - Timur Model
KSDR .MD              :Permeability from CMR - SDR Model
CMFF .V/V             :CMR Free Fluid
BFV  .V/V             :Bound Fluid Volume
#--------------------------------------------------
~PARAMETER INFORMATION
#MNEM.UNIT    VALUE                      DESCRIPTION
#---- -----   --------------------       ------------------------
PDAT .        L.A.T.                     :Permanent Datum
EPD  .M           0.000000               :Elevation of Permanent Datum above Mean Sea Level
LMF  .          Drill Floor              :Logging Measured From (Name of Logging Elevation Reference)
APD  .M          26.400000               :Elevation of Depth Reference (LMF) above Permanent Datum
#--------------------------------------------------
# 
#    DEPTH       DRHO         PEF        RHOB        CALI        TNPH        NPHI        CNTC        CFTC         GR         T2LM      CMRP_3MS      TCMR        KTIM        KSDR        CMFF         BFV     
#                                                                                                                                                                                                             
~A  
 4145.7372      -0.041       1.830       2.380       8.306       0.194       0.204    2539.757    1089.321     193.512       4.362       0.051       0.090       0.001       0.005       0.004       0.086
 4145.5848      -0.041       1.830       2.380       8.306       0.194       0.204    2539.757    1089.321     193.512       4.362       0.051       0.090       0.001       0.005       0.004       0.086
 4145.4324      -0.041       1.830       2.380       8.306       0.194       0.204    2539.757    1089.321     193.512       3.157       0.052       0.104       0.001       0.005       0.003       0.101
 4145.2800      -0.041       1.830       2.380       8.306       0.194       0.204    2539.757    1089.321     193.512       3.570       0.053       0.108       0.003       0.007       0.005       0.103
 4145.1276      -0.041       1.830       2.380       8.306       0.194       0.204    2539.757    1089.321     193.512       3.673       0.059       0.109       0.002       0.008       0.004       0.105
 4144.9752      -0.041       1.830       2.380       8.306       0.194       0.204    2539.757    1089.321     193.512       4.041       0.062       0.106       0.002       0.008       0.004       0.101
 4144.8228      -0.041       1.830       2.380       8.306       0.194       0.204    2539.757    1089.321     193.512       4.484       0.061       0.097       0.002       0.007       0.004       0.092
 4144.6704      -0.041       1.830       2.380       8.306       0.194       0.204    2539.757    1089.321     193.512       6.066       0.057       0.078       0.002       0.005       0.006       0.072
 4144.5180      -0.041       1.830       2.380       8.306       0.194       0.204    2539.757    1089.321     193.512       4.527       0.055       0.080       0.001       0.003       0.003       0.077
 4144.3656      -0.041       1.830       2.380       8.306       0.194       0.204    2539.757    1089.321     193.512       4.460       0.050       0.078       0.001       0.003       0.004       0.073
 4144.2132      -0.041       1.830       2.380       8.306       0.194       0.204    2539.757    1089.321     193.512       5.131       0.053       0.076       0.001       0.004       0.005       0.071
 4144.0608      -0.041       1.830       2.380       8.306       0.194       0.204    2539.757    1089.321     193.512       5.128       0.056       0.094       0.006       0.008       0.008       0.086
 4143.9084      -0.041       1.830       2.380       8.306       0.194       0.204    2539.757    1089.321     193.512       4.467       0.062       0.108       0.006       0.011       0.007       0.101
 4143.7560      -0.041       1.830       2.380       8.306       0.194       0.204    2539.757    1089.321     193.512       4.704       0.066       0.104       0.004       0.010       0.005       0.098
 4143.6036      -0.041       1.830       2.380       8.306       0.194       0.204    2539.757    1089.321     193.512       3.228       0.064       0.106       0.000       0.005       0.000       0.106
 4143.4512      -0.041       1.830       2.380       8.306       0.194       0.204    2539.757    1089.321     193.512       3.140       0.060       0.101       0.000       0.004       0.000       0.101
 4143.2988      -0.041       1.830       2.380       8.306       0.194       0.204    2539.757    1089.321     193.512       2.485       0.048       0.097       0.000       0.002       0.000       0.097
 4143.1464      -0.041       1.830       2.380       8.306       0.194       0.204    2539.757    1089.321     193.512       2.546       0.052       0.105       0.000       0.003       0.001       0.104
 4142.9940      -0.041       1.830       2.380       8.306       0.194       0.204    2539.757    1089.321     193.512       3.330       0.055       0.103       0.002       0.005       0.004       0.098
 4142.8416      -0.041       1.830       2.380       8.306       0.194       0.204    2539.757    1089.321     193.512       3.063       0.055       0.109       0.002       0.005       0.004       0.105
 4142.6892      -0.041       1.830       2.380       8.306       0.194       0.204    2539.757    1089.321     193.512       2.618       0.057       0.115       0.000       0.005       0.002       0.113
 4142.5368      -0.041       1.830       2.380       8.306       0.194       0.204    2539.757    1089.321     193.512       3.319       0.062       0.107       0.001       0.006       0.002       0.104
 4142.3844      -0.041       1.830       2.380       8.306       0.194       0.204    2539.757    1089.321     193.512       3.061       0.055       0.104       0.001       0.004       0.003       0.101
 4142.2320      -0.041       1.830       2.380       8.306       0.194       0.204    2539.757    1089.321     193.512       2.879       0.056       0.111       0.001       0.005       0.003       0.108
 4142.0796      -0.041       1.830       2.380       8.306       0.194       0.204    2539.757    1089.321     193.512       3.005       0.054       0.108       0.001       0.005       0.003       0.105
 4141.9272      -0.041       1.830       2.380       8.306       0.194       0.204    2539.757    1089.321     193.512       4.787       0.064       0.102       0.004       0.010       0.006       0.096
 4141.7748      -0.041       1.830       2.380       8.306       0.194       0.204    2539.757    1089.321     193.512       3.478       0.059       0.102       0.001       0.005       0.003       0.099
 4141.6224      -0.041       1.830       2.380       8.306       0.194       0.204    2539.757    1089.321     193.512       4.713       0.060       0.095       0.004       0.007       0.006       0.089
 4141.4700      -0.041       1.830       2.380       8.306       0.194       0.204    2539.757    1089.321     193.512       9.086       0.055       0.078       0.031       0.012       0.018       0.060
 4141.3176      -0.041       1.830       2.380       8.306       0.194       0.204    2539.757    1089.321     193.512      20.293       0.057       0.081       0.593       0.073       0.044       0.038
 4141.1652      -0.041       1.830       2.380       8.306       0.194       0.204    2539.757    1089.321     193.512      81.250       0.072       0.082       5.688       1.205       0.071       0.012
 4141.0128      -0.033       1.830       2.388       8.306       0.194       0.204    2539.757    1089.321     193.512     149.528       0.086       0.090      12.072       5.897       0.086       0.005
 4140.8604      -0.027       1.830       2.394       8.306       0.194       0.204    2539.757    1089.321     193.512     115.823       0.095       0.104      24.011       6.300       0.090       0.014
 4140.7080      -0.023       1.830       2.394       8.306       0.194       0.204    2539.757    1089.321     193.512     206.370       0.102       0.102      25.164      18.403       0.097       0.005
 4140.5556      -0.019       1.830       2.395       8.319       0.194       0.204    2539.757    1089.321     193.512     219.255       0.104       0.104      29.199      22.355       0.100       0.004
 4140.4032      -0.013       1.945       2.394       8.319       0.194       0.204    2539.757    1089.321     193.512     236.598       0.108       0.108      37.104      30.135       0.105       0.003
 4140.2508      -0.015       2.091       2.391       8.318       0.194       0.204    2539.757    1089.321     193.512     249.421       0.104       0.104      31.214      28.981       0.104       0.000
 4140.0984      -0.017       2.248       2.388       8.319       0.194       0.204    2539.757    1089.321     193.512     259.270       0.107       0.108      38.307      36.199       0.107       0.001
 4139.9460      -0.014       2.290       2.394       8.318       0.194       0.204    2539.757    1089.321     193.512     175.922       0.099       0.102      24.336      13.289       0.095       0.007
 4139.7936      -0.013       2.289       2.394       8.320       0.194       0.204    2539.757    1089.321     193.512     168.127       0.094       0.100      22.443      11.499       0.094       0.006
