~VERSION INFORMATION
VERS.           2.0  :CWLS Log ASCII Standard - VERSION 2.0
WRAP.           NO   :One Line per depth step
CREA. 20000625 21.19 :LAS Creation date <yyyymmdd hh.mm>
#--------------------------------------------------
~WELL INFORMATION
#MNEM.UNIT      DATA             DESCRIPTION
#---- ------ --------------   -----------------------------
STRT .M      4145.7372      :START DEPTH
STOP .M      3918.2040      :STOP DEPTH
STEP .M        -0.1524      :STEP
NULL .          -999.25     :NULL VALUE
COMP .        INPEX BROWSE, LTD.                       :COMPANY
WELL .        GORGONICHTHYS-1                          :WELL
FLD  .        EXPLORATION                              :FIELD
LOC  .        Permit WA-285-P                          :LOCATION
CNTY .        SEDCO-703                                :COUNTY
STAT .        WA                                       :STATE
CTRY .        AUSTRALIA                                :COUNTRY
SRVC .        Schlumberger                             :SERVICE COMPANY
API  .                                                 :API NUMBER
DATE .        13:23:55  Sunday, June 25, 2000          :LOG DATE
UWI  .                                                 :UNIQUE WELL ID
#--------------------------------------------------
~CURVE INFORMATION
#MNEM.UNIT   API CODE DESCRIPTION
#---- -----  -------- -----------------------
DEPTH.M               :DEPTH (BOREHOLE)
DRHO .G/C3            :Bulk Density Correction
PEF  .                :Photoelectric Factor
RHOB .G/C3            :Bulk Density
CALI .IN              :Caliper
TNPH .V/V             :Thermal Neutron Porosity
NPHI .V/V             :Thermal Neutron Porosity (Ratio Method)
CNTC .HZ              :Corrected Near Thermal Counting Rate
CFTC .HZ              :Corrected Far Thermal Counting Rate
GR   .GAPI            :Gamma Ray
T2LM .MS              :T2 Logarithmic Mean
CMRP_3MS.V/V          :CMR 3ms Porosity
TCMR .V/V             :Total CMR Porosity
KTIM .MD              :Permeability from CMR - Timur Model
KSDR .MD              :Permeability from CMR - SDR Model
CMFF .V/V             :CMR Free Fluid
BFV  .V/V             :Bound Fluid Volume
#--------------------------------------------------
~PARAMETER INFORMATION
#MNEM.UNIT    VALUE                      DESCRIPTION
#---- -----   --------------------       ------------------------
PDAT .        L.A.T.                     :Permanent Datum
EPD  .M           0.000000               :Elevation of Permanent Datum above Mean Sea Level
LMF  .          Drill Floor              :Logging Measured From (Name of Logging Elevation Reference)
APD  .M          26.400000               :Elevation of Depth Reference (LMF) above Permanent Datum
#--------------------------------------------------
# 
#    DEPTH       DRHO         PEF        RHOB        CALI        TNPH        NPHI        CNTC        CFTC         GR         T2LM      CMRP_3MS      TCMR        KTIM        KSDR        CMFF         BFV     
#                                                                                                                                                                                                             
~A  
# ...
 4042.1052      -0.013       3.546       2.478       8.404       0.064       0.038    4537.417    3299.379      35.307      12.843       0.213       0.263       6.140       3.168       0.069       0.194
 4041.9528      -0.009       2.559       2.398       8.406       0.072       0.053    4766.753    3313.992      26.139      23.251       0.153       0.194      11.837       3.058       0.093       0.101
 4041.8004      -0.014       2.225       2.359       8.405       0.075       0.072    4867.376    3329.223      23.760      64.876       0.129       0.154      52.519       9.449       0.116       0.038
 4041.6480      -0.015       2.227       2.351       8.406       0.068       0.072    4790.104    3403.842      23.089      85.943       0.141       0.160      81.444      19.353       0.125       0.035
 4041.4956      -0.007       2.206       2.383       8.406       0.067       0.062    4657.358    3334.343      23.982      69.469       0.145       0.174      53.322      17.731       0.123       0.051
 4041.3432      -0.005       2.248       2.442       8.405       0.071       0.069    4548.741    3176.167      35.545      52.948       0.140       0.166      20.006       8.516       0.103       0.063
 4041.1908      -0.004       2.543       2.495       8.406       0.080       0.081    4448.838    2957.811      40.451      14.673       0.236       0.288       6.040       5.885       0.066       0.222
 4041.0384      -0.005       2.959       2.532       8.404       0.072       0.088    4225.884    2932.336      40.274       8.402       0.386       0.474       2.754      14.280       0.033       0.442
 4040.8860      -0.004       3.460       2.528       8.408       0.068       0.075    4018.419    2853.279      30.206       6.778       0.479       0.593       0.314      22.666       0.009       0.583
 4040.7336       0.000       3.321       2.526       8.405       0.066       0.073    3934.142    2824.370      29.849       6.083       0.576       0.719       0.000      39.596       0.000       0.719
 4040.5812       0.009       3.560       2.502       8.379       0.065       0.069    3918.208    2835.812      31.598       6.091       0.607       0.749       0.000      46.820       0.000       0.749
 4040.4288       0.021       3.963       2.460       8.380       0.057       0.062    3924.121    2973.805      31.207       5.944       0.584       0.730       0.000      40.107       0.000       0.730
 4040.2764       0.059       4.410       2.447       8.443       0.049       0.045    3972.942    3168.481      26.781       5.628       0.566       0.725       0.000      35.088       0.000       0.725
 4040.1240       0.088       4.300       2.439       8.619       0.051       0.032    3984.439    3126.166      28.924       5.589       0.563       0.724       0.000      34.369       0.000       0.724
 4039.9716       0.074       4.221       2.424       8.559       0.058       0.046    3978.249    2999.147      38.595       5.639       0.563       0.720       0.000      34.151       0.000       0.720
 4039.8192       0.056       3.695       2.414       8.611       0.069       0.059    4033.428    2847.917      44.945       5.608       0.602       0.776       0.000      45.696       0.000       0.776
 4039.6668       0.039       3.582       2.394       8.606       0.064       0.064    4049.321    2944.969      43.468       5.811       0.637       0.806       0.000      56.940       0.000       0.806
 4039.5144       0.032       3.639       2.357       8.900       0.057       0.047    3848.127    2879.413      40.326       6.057       0.644       0.798       0.000      59.381       0.000       0.798
 4039.3620       0.007       4.663       2.175       9.346       0.066       0.049    3637.448    2545.378      55.063       6.258       0.641       0.780       0.000      57.941       0.000       0.780
 4039.2096       0.009       6.428       2.048       9.402       0.104       0.096    3504.538    2026.728      77.560       6.570       0.588       0.701       0.004      41.701       0.001       0.700
 4039.0572       0.021      10.432       1.975      11.821       0.116       0.113    3518.439    1830.239      88.219       6.852       0.478       0.578       0.159      20.991       0.007       0.571
 4038.9048       0.048      14.311       2.024      11.208       0.102       0.101    3648.162    2041.339      78.398       7.489       0.362       0.440       0.446       8.417       0.015       0.425
 4038.7524       0.049      16.297       2.066      10.624       0.073       0.054    4042.970    2637.032      55.813       9.206       0.250       0.301       0.678       2.793       0.025       0.276
 4038.6000       0.025      16.265       2.072      10.625       0.057       0.022    4523.462    3222.454      38.488      11.708       0.145       0.190       0.991       0.720       0.041       0.149
 4038.4476       0.004      15.556       2.039      10.615       0.051       0.021    4909.771    3643.460      27.626      26.779       0.092       0.121       2.092       0.613       0.060       0.061
 4038.2952      -0.005      15.592       2.124      10.436       0.053       0.027    5047.829    3717.473      24.172      37.468       0.105       0.129       5.244       1.553       0.075       0.054
 4038.1428      -0.013      14.634       2.229       8.627       0.064       0.054    5049.688    3659.939      23.034      29.755       0.108       0.144       7.742       1.514       0.082       0.061
 4037.9904      -0.011       7.249       2.401       8.503       0.068       0.060    5040.414    3577.180      21.240      43.070       0.109       0.131       7.435       2.159       0.080       0.050
 4037.8380      -0.015       4.075       2.402       8.505       0.068       0.063    5080.104    3602.476      20.888      46.515       0.108       0.128       9.303       2.301       0.083       0.044
 4037.6856      -0.019       2.190       2.412       8.503       0.063       0.061    5145.112    3760.192      20.676      40.016       0.103       0.120       5.643       1.339       0.075       0.046
 4037.5332      -0.016       2.232       2.437       8.505       0.055       0.052    5284.604    4059.265      21.122      61.783       0.085       0.091       4.036       1.036       0.064       0.026
 4037.3808      -0.010       2.261       2.468       8.503       0.044       0.042    5498.980    4565.392      23.792      48.088       0.070       0.080       1.616       0.388       0.053       0.027
 4037.2284      -0.010       2.543       2.491       8.502       0.034       0.027    5629.385    5009.348      26.474      64.301       0.063       0.067       1.153       0.339       0.047       0.020
 4037.0760      -0.009       2.706       2.492       8.504       0.030       0.020    5674.253    5225.313      27.380      60.979       0.061       0.072       1.766       0.390       0.052       0.020
 4036.9236      -0.007       2.702       2.487       8.506       0.035       0.020    5692.886    5017.545      27.472      56.536       0.075       0.091       3.661       0.869       0.063       0.027
 4036.7712      -0.011       2.366       2.462       8.506       0.042       0.028    5649.253    4731.920      27.455     106.436       0.088       0.092       9.968       3.235       0.075       0.017
 4036.6188      -0.013       2.137       2.452       8.504       0.048       0.035    5542.557    4462.540      27.942     101.884       0.090       0.096      13.210       3.549       0.079       0.018
 4036.4664      -0.014       2.177       2.449       8.503       0.049       0.039    5505.204    4411.533      27.843      63.787       0.093       0.106       9.552       2.087       0.078       0.029
 4036.3140      -0.014       2.248       2.459       8.503       0.049       0.039    5519.432    4426.324      26.386      52.413       0.097       0.112       5.653       1.702       0.073       0.038
 4036.1616      -0.012       2.324       2.468       8.501       0.047       0.039    5492.991    4466.732      25.192      39.495       0.093       0.110       3.187       0.906       0.066       0.044
