~VERSION INFORMATION
VERS.           2.0  :CWLS Log ASCII Standard - VERSION 2.0
WRAP.           NO   :One Line per depth step
CREA. 20000625 21.19 :LAS Creation date <yyyymmdd hh.mm>
#--------------------------------------------------
~WELL INFORMATION
#MNEM.UNIT      DATA             DESCRIPTION
#---- ------ --------------   -----------------------------
STRT .M      4145.7372      :START DEPTH
STOP .M      3918.2040      :STOP DEPTH
STEP .M        -0.1524      :STEP
NULL .          -999.25     :NULL VALUE
COMP .        INPEX BROWSE, LTD.                       :COMPANY
WELL .        GORGONICHTHYS-1                          :WELL
FLD  .        EXPLORATION                              :FIELD
LOC  .        Permit WA-285-P                          :LOCATION
CNTY .        SEDCO-703                                :COUNTY
STAT .        WA                                       :STATE
CTRY .        AUSTRALIA                                :COUNTRY
SRVC .        Schlumberger                             :SERVICE COMPANY
API  .                                                 :API NUMBER
DATE .        13:23:55  Sunday, June 25, 2000          :LOG DATE
UWI  .                                                 :UNIQUE WELL ID
#--------------------------------------------------
~CURVE INFORMATION
#MNEM.UNIT   API CODE DESCRIPTION
#---- -----  -------- -----------------------
DEPTH.M               :DEPTH (BOREHOLE)
DRHO .G/C3            :Bulk Density Correction
PEF  .                :Photoelectric Factor
RHOB .G/C3            :Bulk Density
CALI .IN              :Caliper
TNPH .V/V             :Thermal Neutron Porosity
NPHI .V/V             :Thermal Neutron Porosity (Ratio Method)
CNTC .HZ              :Corrected Near Thermal Counting Rate
CFTC .HZ              :Corrected Far Thermal Counting Rate
GR   .GAPI            :Gamma Ray
T2LM .MS              :T2 Logarithmic Mean
CMRP_3MS.V/V          :CMR 3ms Porosity
TCMR .V/V             :Total CMR Porosity
KTIM .MD              :Permeability from CMR - Timur Model
KSDR .MD              :Permeability from CMR - SDR Model
CMFF .V/V             :CMR Free Fluid
BFV  .V/V             :Bound Fluid Volume
#--------------------------------------------------
~PARAMETER INFORMATION
#MNEM.UNIT    VALUE                      DESCRIPTION
#---- -----   --------------------       ------------------------
PDAT .        L.A.T.                     :Permanent Datum
EPD  .M           0.000000               :Elevation of Permanent Datum above Mean Sea Level
LMF  .          Drill Floor              :Logging Measured From (Name of Logging Elevation Reference)
APD  .M          26.400000               :Elevation of Depth Reference (LMF) above Permanent Datum
#--------------------------------------------------
# 
#    DEPTH       DRHO         PEF        RHOB        CALI        TNPH        NPHI        CNTC        CFTC         GR         T2LM      CMRP_3MS      TCMR        KTIM        KSDR        CMFF         BFV     
#                                                                                                                                                                                                             
~A  
# ...
 4103.0652      -0.001       2.611       2.505       8.401       0.061       0.067    4821.263    3578.696      49.596      84.104       0.073       0.073       2.874       0.809       0.063       0.010
 4102.9128      -0.003       2.543       2.485       8.402       0.048       0.039    5085.368    4095.749      35.118      75.666       0.080       0.080       4.369       0.937       0.065       0.015
 4102.7604      -0.008       2.315       2.465       8.403       0.044       0.029    5371.287    4432.217      24.940      84.420       0.082       0.082       6.271       1.293       0.074       0.008
 4102.6080      -0.010       2.206       2.453       8.402       0.044       0.031    5481.822    4544.483      20.474      84.163       0.092       0.092      12.777       2.069       0.084       0.009
 4102.4556      -0.013       2.132       2.444       8.403       0.044       0.036    5458.456    4512.245      19.667      76.598       0.099       0.099      16.636       2.281       0.083       0.017
 4102.3032      -0.015       2.114       2.444       8.403       0.046       0.038    5456.847    4444.830      20.183      65.699       0.101       0.105      21.278       2.079       0.085       0.020
 4102.1508      -0.013       2.114       2.454       8.403       0.045       0.038    5449.586    4485.828      20.784      68.597       0.099       0.102      16.225       2.053       0.081       0.021
 4101.9984      -0.012       2.181       2.465       8.403       0.043       0.034    5426.932    4526.765      22.114      78.753       0.096       0.097      13.616       2.237       0.078       0.020
 4101.8460      -0.009       2.229       2.475       8.401       0.041       0.032    5451.597    4610.069      22.154      65.807       0.092       0.094       7.538       1.330       0.071       0.023
 4101.6936      -0.009       2.266       2.473       8.403       0.040       0.031    5478.659    4655.723      21.816      33.069       0.088       0.103       3.714       0.496       0.066       0.037
 4101.5412      -0.005       2.174       2.474       8.403       0.039       0.031    5477.727    4688.260      22.071      51.585       0.091       0.092       4.065       0.751       0.065       0.027
 4101.3888      -0.007       2.184       2.472       8.401       0.039       0.029    5467.456    4689.863      22.030      40.458       0.095       0.100       3.679       0.654       0.066       0.034
 4101.2364      -0.008       2.155       2.472       8.402       0.040       0.028    5491.595    4681.543      22.591      41.969       0.097       0.101       3.389       0.746       0.065       0.036
 4101.0840      -0.008       2.161       2.473       8.402       0.040       0.030    5498.001    4691.395      22.001      45.081       0.097       0.098       3.472       0.748       0.065       0.033
 4100.9316      -0.007       2.152       2.469       8.403       0.040       0.029    5498.323    4680.264      22.040      36.147       0.094       0.104       2.754       0.603       0.063       0.041
 4100.7792      -0.008       2.142       2.460       8.401       0.042       0.030    5470.234    4591.013      22.374      33.345       0.090       0.102       2.189       0.488       0.060       0.042
 4100.6268      -0.003       2.206       2.454       8.403       0.046       0.033    5455.743    4450.788      21.189      32.040       0.090       0.111       3.221       0.623       0.066       0.045
 4100.4744      -0.003       2.212       2.447       8.402       0.049       0.039    5385.471    4292.477      21.041      38.039       0.102       0.121       4.531       1.226       0.072       0.049
 4100.3220      -0.002       2.254       2.444       8.402       0.053       0.044    5315.346    4128.897      20.736      36.432       0.103       0.129       7.137       1.485       0.080       0.050
 4100.1696      -0.002       2.181       2.440       8.403       0.058       0.050    5205.896    3926.264      24.542      32.436       0.102       0.133       6.978       1.329       0.080       0.054
 4100.0172      -0.002       2.167       2.432       8.401       0.063       0.057    5100.527    3726.483      27.799      31.211       0.103       0.134       8.019       1.247       0.082       0.052
 4099.8648      -0.008       2.197       2.424       8.403       0.078       0.064    4997.679    3366.613      41.136      27.519       0.107       0.139       7.107       1.118       0.081       0.058
 4099.7124      -0.008       2.297       2.444       8.402       0.095       0.081    4814.732    2966.998      67.561      16.328       0.091       0.143       5.030       0.442       0.075       0.068
 4099.5600      -0.005       2.461       2.497       8.400       0.120       0.108    4694.976    2590.730      88.946      11.417       0.071       0.121       1.482       0.111       0.055       0.066
 4099.4076      -0.003       2.741       2.552       8.393       0.133       0.136    4676.448    2451.450      84.516       6.000       0.046       0.103       0.364       0.016       0.037       0.065
 4099.2552      -0.002       2.814       2.583       8.391       0.106       0.138    4600.278    2698.138      70.950       4.429       0.029       0.073       0.052       0.002       0.022       0.052
 4099.1028      -0.005       2.684       2.595       8.399       0.082       0.110    4570.534    3012.972      63.181       7.981       0.026       0.039       0.009       0.001       0.015       0.024
 4098.9504      -0.008       2.602       2.590       8.399       0.063       0.083    4659.966    3403.257      66.026       5.531       0.024       0.047       0.011       0.001       0.015       0.032
 4098.7980      -0.011       2.613       2.589       8.398       0.063       0.057    4640.520    3397.932      64.092       9.985       0.033       0.041       0.006       0.001       0.013       0.028
 4098.6456      -0.013       2.809       2.584       8.398       0.061       0.060    4627.716    3433.913      60.624      19.572       0.031       0.034       0.004       0.002       0.012       0.022
 4098.4932      -0.011       2.756       2.595       8.401       0.058       0.057    4599.784    3476.708      63.546       7.810       0.026       0.040       0.002       0.001       0.009       0.032
 4098.3408      -0.008       2.647       2.601       8.399       0.056       0.054    4444.262    3397.650      66.243      11.452       0.033       0.044       0.003       0.002       0.010       0.035
 4098.1884      -0.007       2.598       2.591       8.402       0.063       0.060    4292.878    3144.692      69.085      15.320       0.035       0.048       0.005       0.005       0.011       0.037
 4098.0360      -0.008       2.519       2.567       8.402       0.081       0.072    4249.036    2804.812      67.751      23.349       0.048       0.061       0.021       0.031       0.017       0.044
 4097.8836      -0.006       2.652       2.546       8.419       0.079       0.085    4014.382    2680.892      66.539      30.574       0.053       0.063       0.050       0.059       0.023       0.040
 4097.7312      -0.007       2.695       2.528       8.437       0.087       0.082    3819.794    2450.781      72.344      52.618       0.059       0.059       0.036       0.136       0.021       0.038
 4097.5788      -0.004       2.771       2.534       8.414       0.099       0.104    3838.019    2326.546      86.345      54.085       0.059       0.059       0.039       0.145       0.021       0.038
 4097.4264      -0.001       2.984       2.549       8.405       0.105       0.109    4045.413    2383.340      90.132      28.708       0.050       0.052       0.011       0.024       0.014       0.038
 4097.2740       0.001       3.128       2.565       8.402       0.077       0.093    4308.667    2904.532      82.187      17.020       0.047       0.056       0.018       0.012       0.017       0.040
 4097.1216      -0.000       3.000       2.568       8.400       0.054       0.048    4743.585    3669.999      60.377      64.648       0.046       0.046       0.114       0.077       0.031       0.015
