~VERSION INFORMATION
VERS.           2.0  :CWLS Log ASCII Standard - VERSION 2.0
WRAP.           NO   :One Line per depth step
CREA. 20000625 21.19 :LAS Creation date <yyyymmdd hh.mm>
#--------------------------------------------------
~WELL INFORMATION
#MNEM.UNIT      DATA             DESCRIPTION
#---- ------ --------------   -----------------------------
STRT .M      4145.7372      :START DEPTH
STOP .M      3918.2040      :STOP DEPTH
STEP .M        -0.1524      :STEP
NULL .          -999.25     :NULL VALUE
COMP .        INPEX BROWSE, LTD.                       :COMPANY
WELL .        GORGONICHTHYS-1                          :WELL
FLD  .        EXPLORATION                              :FIELD
LOC  .        Permit WA-285-P                          :LOCATION
CNTY .        SEDCO-703                                :COUNTY
STAT .        WA                                       :STATE
CTRY .        AUSTRALIA                                :COUNTRY
SRVC .        Schlumberger                             :SERVICE COMPANY
API  .                                                 :API NUMBER
DATE .        13:23:55  Sunday, June 25, 2000          :LOG DATE
UWI  .                                                 :UNIQUE WELL ID
#--------------------------------------------------
~CURVE INFORMATION
#MNEM.UNIT   API CODE DESCRIPTION
#---- -----  -------- -----------------------
DEPTH.M               :DEPTH (BOREHOLE)
DRHO .G/C3            :Bulk Density Correction
PEF  .                :Photoelectric Factor
RHOB .G/C3            :Bulk Density
CALI .IN              :Caliper
TNPH .V/V             :Thermal Neutron Porosity
NPHI .V/V             :Thermal Neutron Porosity (Ratio Method)
CNTC .HZ              :Corrected Near Thermal Counting Rate
CFTC .HZ              :Corrected Far Thermal Counting Rate
GR   .GAPI            :Gamma Ray
T2LM .MS              :T2 Logarithmic Mean
CMRP_3MS.V/V          :CMR 3ms Porosity
TCMR .V/V             :Total CMR Porosity
KTIM .MD              :Permeability from CMR - Timur Model
KSDR .MD              :Permeability from CMR - SDR Model
CMFF .V/V             :CMR Free Fluid
BFV  .V/V             :Bound Fluid Volume
#--------------------------------------------------
~PARAMETER INFORMATION
#MNEM.UNIT    VALUE                      DESCRIPTION
#---- -----   --------------------       ------------------------
PDAT .        L.A.T.                     :Permanent Datum
EPD  .M           0.000000               :Elevation of Permanent Datum above Mean Sea Level
LMF  .          Drill Floor              :Logging Measured From (Name of Logging Elevation Reference)
APD  .M          26.400000               :Elevation of Depth Reference (LMF) above Permanent Datum
#--------------------------------------------------
# 
#    DEPTH       DRHO         PEF        RHOB        CALI        TNPH        NPHI        CNTC        CFTC         GR         T2LM      CMRP_3MS      TCMR        KTIM        KSDR        CMFF         BFV     
#                                                                                                                                                                                                             
~A  
# ...
 4084.7772      -0.011       2.189       2.432       8.435       0.056       0.045    5320.719    4067.628      22.989      52.412       0.111       0.120      16.931       2.243       0.089       0.031
 4084.6248      -0.010       2.215       2.431       8.436       0.058       0.051    5246.589    3949.884      22.331      35.340       0.114       0.138      14.656       1.827       0.092       0.046
 4084.4724      -0.008       2.220       2.439       8.434       0.061       0.055    4958.521    3669.847      25.756      34.332       0.119       0.151      16.205       2.460       0.096       0.055
 4084.3200      -0.009       2.189       2.464       8.436       0.080       0.070    4649.052    3095.904      50.378      52.728       0.116       0.128      10.875       3.014       0.086       0.043
 4084.1676      -0.007       2.145       2.511       8.435       0.107       0.115    4536.253    2650.135      71.787      31.813       0.099       0.125       4.807       0.987       0.073       0.052
 4084.0152      -0.006       2.361       2.545       8.436       0.107       0.124    4575.151    2671.167      72.730      43.159       0.090       0.105       3.835       0.923       0.067       0.038
 4083.8628      -0.007       2.563       2.529       8.436       0.071       0.100    4667.737    3253.769      48.933      38.351       0.081       0.093       1.867       0.437       0.057       0.036
 4083.7104      -0.011       2.644       2.483       8.436       0.052       0.048    4994.050    3912.866      28.076      33.395       0.084       0.103       2.868       0.501       0.063       0.040
 4083.5580      -0.012       2.408       2.460       8.435       0.046       0.031    5384.924    4405.402      24.052      43.635       0.084       0.098       3.979       0.716       0.066       0.032
 4083.4056      -0.014       2.336       2.465       8.436       0.041       0.030    5588.373    4726.140      25.944      35.462       0.077       0.097       2.505       0.447       0.061       0.036
 4083.2532      -0.012       2.320       2.479       8.435       0.039       0.028    5641.077    4854.225      28.012      44.919       0.074       0.091       4.620       0.564       0.066       0.026
 4083.1008      -0.013       2.247       2.484       8.436       0.037       0.027    5673.329    4931.414      27.032      26.169       0.073       0.107       3.670       0.355       0.067       0.040
 4082.9484      -0.015       2.254       2.482       8.436       0.039       0.026    5694.852    4899.103      25.884      26.655       0.072       0.110       3.722       0.414       0.068       0.042
 4082.7960      -0.015       2.223       2.475       8.436       0.040       0.029    5666.038    4826.965      24.186      25.702       0.072       0.107       3.797       0.347       0.067       0.040
 4082.6436      -0.013       2.231       2.471       8.436       0.042       0.030    5607.568    4722.801      23.412      25.129       0.073       0.108       4.367       0.339       0.069       0.038
 4082.4912      -0.012       2.235       2.469       8.436       0.044       0.033    5562.638    4604.623      22.866      30.332       0.077       0.105       3.757       0.455       0.067       0.038
 4082.3388      -0.009       2.306       2.471       8.436       0.046       0.037    5514.903    4489.272      22.458      50.733       0.085       0.099       4.626       0.975       0.068       0.031
 4082.1864      -0.006       2.318       2.475       8.436       0.048       0.039    5497.867    4428.895      22.530      48.279       0.089       0.105       6.221       1.144       0.073       0.032
 4082.0340      -0.007       2.272       2.464       8.435       0.047       0.039    5506.270    4461.704      21.365      77.575       0.106       0.107       8.629       3.202       0.077       0.030
 4081.8816      -0.010       2.260       2.460       8.437       0.045       0.036    5536.709    4538.270      20.810      67.885       0.105       0.108       9.494       2.491       0.078       0.030
 4081.7292      -0.010       2.298       2.457       8.436       0.044       0.035    5550.380    4580.664      20.723      96.633       0.102       0.103      18.891       4.145       0.083       0.020
 4081.5768      -0.013       2.314       2.462       8.436       0.046       0.035    5547.369    4539.382      21.816      74.842       0.104       0.111      16.589       3.348       0.085       0.026
 4081.4244      -0.015       2.247       2.461       8.436       0.047       0.038    5504.806    4456.431      21.463      51.291       0.100       0.120      10.679       2.181       0.083       0.037
 4081.2720      -0.015       2.236       2.463       8.437       0.050       0.041    5431.122    4320.072      21.748      46.184       0.100       0.123      10.005       1.977       0.083       0.040
 4081.1196      -0.014       2.251       2.455       8.436       0.052       0.044    5340.823    4179.162      20.490      38.675       0.097       0.124       8.129       1.418       0.081       0.044
 4080.9672      -0.014       2.250       2.436       8.436       0.056       0.048    5241.695    3994.410      20.481      49.541       0.099       0.118      11.292       1.888       0.083       0.034
 4080.8148      -0.012       2.223       2.418       8.436       0.061       0.054    5148.265    3814.196      19.681      69.219       0.104       0.114      17.959       3.209       0.087       0.027
 4080.6624      -0.011       2.228       2.405       8.436       0.064       0.059    5036.482    3661.684      19.405      66.426       0.116       0.128      27.663       4.762       0.098       0.031
 4080.5100      -0.011       2.236       2.403       8.436       0.065       0.063    4810.071    3473.053      21.384      78.055       0.122       0.130      40.431       6.872       0.103       0.027
 4080.3576      -0.009       2.245       2.427       8.437       0.077       0.070    4508.693    3048.718      30.190      95.670       0.124       0.127      57.302       9.404       0.104       0.022
 4080.2052      -0.007       2.266       2.462       8.436       0.098       0.102    4166.222    2535.042      49.291      92.480       0.118       0.125      44.187       8.452       0.101       0.024
 4080.0528      -0.006       2.459       2.509       8.436       0.126       0.133    3811.015    2057.270      64.464      89.102       0.105       0.113      23.805       5.222       0.090       0.024
 4079.9004      -0.008       2.622       2.535       8.437       0.132       0.156    3524.513    1857.654      81.006     108.412       0.083       0.083       3.696       2.213       0.061       0.022
 4079.7480      -0.005       2.894       2.574       8.439       0.135       0.149    3305.350    1721.253      92.979      49.302       0.060       0.067       0.257       0.200       0.036       0.032
 4079.5956      -0.005       2.944       2.610       8.441       0.142       0.145    3180.506    1614.064     111.930      36.890       0.048       0.053       0.029       0.042       0.020       0.033
 4079.4432      -0.003       3.058       2.651       8.437       0.143       0.160    3200.520    1618.999     130.099      21.118       0.037       0.043       0.003       0.006       0.009       0.034
 4079.2908      -0.005       3.157       2.670       8.437       0.141       0.151    3263.776    1660.038     129.301       3.247       0.018       0.058       0.001       0.000       0.005       0.053
 4079.1384      -0.006       3.156       2.673       8.436       0.132       0.139    3235.964    1702.933     130.104       3.987       0.015       0.037       0.000       0.000       0.004       0.034
 4078.9860      -0.012       3.148       2.675       8.446       0.138       0.131    3236.821    1665.151     130.140       2.503       0.006       0.045       0.001       0.000       0.005       0.040
 4078.8336      -0.011       3.208       2.683       8.477       0.147       0.150    3218.049    1602.871     143.043       1.394       0.003       0.049       0.000       0.000       0.003       0.046
