~VERSION INFORMATION
VERS.           2.0  :CWLS Log ASCII Standard - VERSION 2.0
WRAP.           NO   :One Line per depth step
CREA. 20000625 21.19 :LAS Creation date <yyyymmdd hh.mm>
#--------------------------------------------------
~WELL INFORMATION
#MNEM.UNIT      DATA             DESCRIPTION
#---- ------ --------------   -----------------------------
STRT .M      4145.7372      :START DEPTH
STOP .M      3918.2040      :STOP DEPTH
STEP .M        -0.1524      :STEP
NULL .          -999.25     :NULL VALUE
COMP .        INPEX BROWSE, LTD.                       :COMPANY
WELL .        GORGONICHTHYS-1                          :WELL
FLD  .        EXPLORATION                              :FIELD
LOC  .        Permit WA-285-P                          :LOCATION
CNTY .        SEDCO-703                                :COUNTY
STAT .        WA                                       :STATE
CTRY .        AUSTRALIA                                :COUNTRY
SRVC .        Schlumberger                             :SERVICE COMPANY
API  .                                                 :API NUMBER
DATE .        13:23:55  Sunday, June 25, 2000          :LOG DATE
UWI  .                                                 :UNIQUE WELL ID
#--------------------------------------------------
~CURVE INFORMATION
#MNEM.UNIT   API CODE DESCRIPTION
#---- -----  -------- -----------------------
DEPTH.M               :DEPTH (BOREHOLE)
DRHO .G/C3            :Bulk Density Correction
PEF  .                :Photoelectric Factor
RHOB .G/C3            :Bulk Density
CALI .IN              :Caliper
TNPH .V/V             :Thermal Neutron Porosity
NPHI .V/V             :Thermal Neutron Porosity (Ratio Method)
CNTC .HZ              :Corrected Near Thermal Counting Rate
CFTC .HZ              :Corrected Far Thermal Counting Rate
GR   .GAPI            :Gamma Ray
T2LM .MS              :T2 Logarithmic Mean
CMRP_3MS.V/V          :CMR 3ms Porosity
TCMR .V/V             :Total CMR Porosity
KTIM .MD              :Permeability from CMR - Timur Model
KSDR .MD              :Permeability from CMR - SDR Model
CMFF .V/V             :CMR Free Fluid
BFV  .V/V             :Bound Fluid Volume
#--------------------------------------------------
~PARAMETER INFORMATION
#MNEM.UNIT    VALUE                      DESCRIPTION
#---- -----   --------------------       ------------------------
PDAT .        L.A.T.                     :Permanent Datum
EPD  .M           0.000000               :Elevation of Permanent Datum above Mean Sea Level
LMF  .          Drill Floor              :Logging Measured From (Name of Logging Elevation Reference)
APD  .M          26.400000               :Elevation of Depth Reference (LMF) above Permanent Datum
#--------------------------------------------------
# 
#    DEPTH       DRHO         PEF        RHOB        CALI        TNPH        NPHI        CNTC        CFTC         GR         T2LM      CMRP_3MS      TCMR        KTIM        KSDR        CMFF         BFV     
#                                                                                                                                                                                                             
~A  
# ...
 4011.6252      -0.005       2.330       2.457       8.445       0.057       0.047    5110.694    3889.067      31.403     168.174       0.060       0.060       1.109       1.451       0.059       0.001
 4011.4728      -0.009       2.294       2.411       8.445       0.064       0.058    5065.991    3682.888      31.328     127.560       0.080       0.085       8.092       3.324       0.080       0.005
 4011.3204      -0.015       2.271       2.358       8.445       0.061       0.062    5029.591    3732.830      29.696      55.605       0.101       0.121      26.425       2.664       0.094       0.027
 4011.1680      -0.018       2.293       2.349       8.445       0.051       0.051    5065.728    3994.168      26.060      40.826       0.098       0.123       9.684       1.540       0.083       0.040
 4011.0156      -0.013       2.277       2.387       8.444       0.045       0.038    5165.211    4258.012      25.865      46.788       0.099       0.117       8.303       1.661       0.079       0.038
 4010.8632      -0.012       2.321       2.453       8.445       0.045       0.031    5334.901    4395.841      27.248      61.760       0.090       0.095       3.468       1.243       0.064       0.031
 4010.7108      -0.008       2.301       2.495       8.445       0.044       0.032    5413.052    4466.579      29.242      64.088       0.073       0.077       1.348       0.564       0.051       0.026
 4010.5584      -0.004       2.352       2.508       8.446       0.044       0.031    5444.921    4510.484      30.992      55.422       0.059       0.065       0.403       0.226       0.039       0.026
 4010.4060      -0.001       2.326       2.519       8.445       0.041       0.034    5448.466    4605.792      34.083     103.293       0.051       0.051       0.200       0.287       0.034       0.016
 4010.2536      -0.002       2.601       2.515       8.445       0.041       0.032    5255.725    4431.958      35.511     175.426       0.050       0.050       0.256       0.768       0.041       0.009
 4010.1012       0.000       2.800       2.517       8.446       0.052       0.041    5003.809    3921.041      39.516     165.961       0.054       0.055       0.440       1.027       0.043       0.012
 4009.9488      -0.001       2.901       2.477       8.445       0.074       0.066    4770.090    3281.120      45.122     217.966       0.078       0.078       3.494       7.085       0.061       0.017
 4009.7964      -0.007       2.616       2.419       8.446       0.092       0.085    4570.922    2861.472      44.742     155.874       0.097       0.107      15.035      12.867       0.083       0.025
 4009.6440      -0.014       2.371       2.359       8.445       0.088       0.097    4488.310    2860.005      37.299     239.907       0.111       0.113      37.169      38.060       0.095       0.019
 4009.4916      -0.015       2.271       2.328       8.445       0.072       0.082    4634.319    3214.219      27.155     272.736       0.116       0.116      48.145      54.243       0.103       0.013
 4009.3392      -0.018       2.231       2.312       8.445       0.055       0.061    4792.271    3682.669      22.953     313.118       0.122       0.122      74.352      86.625       0.116       0.006
 4009.1868      -0.021       2.266       2.311       8.445       0.040       0.041    4760.456    4044.717      25.271     304.355       0.119       0.119      67.795      74.663       0.116       0.003
 4009.0344      -0.021       2.225       2.350       8.444       0.045       0.032    4590.986    3785.370      34.147     272.914       0.112       0.112      47.478      47.267       0.109       0.003
 4008.8820      -0.020       2.246       2.426       8.446       0.063       0.057    4290.969    3141.253      57.984     239.835       0.098       0.098      18.504      20.937       0.090       0.007
 4008.7296      -0.016       2.354       2.534       8.444       0.094       0.092    4051.230    2512.267      73.106      97.903       0.072       0.081       3.636       1.648       0.060       0.021
 4008.5772      -0.008       2.608       2.586       8.447       0.100       0.110    3953.897    2387.454      71.822      33.115       0.059       0.075       0.415       0.137       0.040       0.035
 4008.4248      -0.007       2.988       2.566       8.445       0.084       0.090    4112.824    2678.919      49.467      42.909       0.072       0.081       0.715       0.324       0.046       0.036
 4008.2724      -0.014       2.771       2.454       8.445       0.073       0.059    4470.993    3082.415      31.024      45.901       0.085       0.098       1.889       0.763       0.058       0.040
 4008.1200      -0.016       2.484       2.367       8.445       0.063       0.047    4837.644    3533.352      23.616      36.695       0.097       0.120       3.596       1.111       0.068       0.052
 4007.9676      -0.019       2.241       2.316       8.444       0.061       0.045    4807.327    3551.354      27.336      38.494       0.105       0.139       8.345       2.228       0.083       0.056
 4007.8152      -0.022       2.195       2.365       8.447       0.070       0.067    4680.067    3285.634      50.111      27.390       0.090       0.128       3.379       0.803       0.068       0.060
 4007.6628      -0.017       2.278       2.467       8.445       0.089       0.097    4640.938    2950.555      71.692      17.649       0.063       0.105       0.752       0.149       0.046       0.058
 4007.5104      -0.006       2.497       2.577       8.445       0.084       0.097    4569.175    2976.919      78.170       9.217       0.048       0.091       0.183       0.023       0.031       0.060
 4007.3580      -0.007       2.741       2.570       8.446       0.063       0.075    4546.904    3322.951      61.554       6.202       0.039       0.087       0.101       0.009       0.026       0.062
 4007.2056      -0.006       2.883       2.526       8.445       0.059       0.042    4832.861    3626.354      43.982       9.249       0.045       0.083       0.190       0.017       0.032       0.051
 4007.0532      -0.003       2.668       2.482       8.444       0.056       0.044    5059.677    3871.034      34.616      13.866       0.060       0.098       0.860       0.070       0.048       0.050
 4006.9008      -0.003       2.520       2.466       8.445       0.053       0.046    5143.385    4010.470      30.777      14.288       0.067       0.108       1.091       0.111       0.051       0.057
 4006.7484      -0.004       2.419       2.475       8.446       0.052       0.044    5185.204    4071.079      31.998      16.834       0.063       0.091       0.590       0.077       0.044       0.047
 4006.5960      -0.006       2.359       2.488       8.445       0.049       0.043    5178.027    4132.844      33.214      27.796       0.076       0.094       1.185       0.239       0.052       0.042
 4006.4436      -0.010       2.508       2.476       8.444       0.051       0.041    5055.681    3998.212      32.468      27.648       0.075       0.094       1.237       0.235       0.052       0.041
 4006.2912      -0.011       2.502       2.473       8.446       0.060       0.048    4955.216    3697.687      28.715      27.306       0.073       0.090       0.848       0.200       0.048       0.043
 4006.1388      -0.008       2.518       2.493       8.446       0.068       0.064    4905.271    3479.129      35.122      23.981       0.062       0.091       1.022       0.161       0.050       0.041
 4005.9864      -0.009       2.539       2.498       8.445       0.069       0.067    4870.569    3448.339      39.564      36.118       0.075       0.094       1.173       0.409       0.052       0.042
 4005.8340      -0.009       2.576       2.471       8.445       0.060       0.061    4886.758    3639.203      38.933      32.047       0.073       0.095       1.150       0.328       0.052       0.043
 4005.6816      -0.012       2.480       2.439       8.447       0.058       0.048    4987.569    3757.501      28.823      30.281       0.068       0.088       1.017       0.222       0.050       0.038
