~VERSION INFORMATION
VERS.           2.0  :CWLS Log ASCII Standard - VERSION 2.0
WRAP.           NO   :One Line per depth step
CREA. 20000625 21.19 :LAS Creation date <yyyymmdd hh.mm>
#--------------------------------------------------
~WELL INFORMATION
#MNEM.UNIT      DATA             DESCRIPTION
#---- ------ --------------   -----------------------------
STRT .M      4145.7372      :START DEPTH
STOP .M      3918.2040      :STOP DEPTH
STEP .M        -0.1524      :STEP
NULL .          -999.25     :NULL VALUE
COMP .        INPEX BROWSE, LTD.                       :COMPANY
WELL .        GORGONICHTHYS-1                          :WELL
FLD  .        EXPLORATION                              :FIELD
LOC  .        Permit WA-285-P                          :LOCATION
CNTY .        SEDCO-703                                :COUNTY
STAT .        WA                                       :STATE
CTRY .        AUSTRALIA                                :COUNTRY
SRVC .        Schlumberger                             :SERVICE COMPANY
API  .                                                 :API NUMBER
DATE .        13:23:55  Sunday, June 25, 2000          :LOG DATE
UWI  .                                                 :UNIQUE WELL ID
#--------------------------------------------------
~CURVE INFORMATION
#MNEM.UNIT   API CODE DESCRIPTION
#---- -----  -------- -----------------------
DEPTH.M               :DEPTH (BOREHOLE)
DRHO .G/C3            :Bulk Density Correction
PEF  .                :Photoelectric Factor
RHOB .G/C3            :Bulk Density
CALI .IN              :Caliper
TNPH .V/V             :Thermal Neutron Porosity
NPHI .V/V             :Thermal Neutron Porosity (Ratio Method)
CNTC .HZ              :Corrected Near Thermal Counting Rate
CFTC .HZ              :Corrected Far Thermal Counting Rate
GR   .GAPI            :Gamma Ray
T2LM .MS              :T2 Logarithmic Mean
CMRP_3MS.V/V          :CMR 3ms Porosity
TCMR .V/V             :Total CMR Porosity
KTIM .MD              :Permeability from CMR - Timur Model
KSDR .MD              :Permeability from CMR - SDR Model
CMFF .V/V             :CMR Free Fluid
BFV  .V/V             :Bound Fluid Volume
#--------------------------------------------------
~PARAMETER INFORMATION
#MNEM.UNIT    VALUE                      DESCRIPTION
#---- -----   --------------------       ------------------------
PDAT .        L.A.T.                     :Permanent Datum
EPD  .M           0.000000               :Elevation of Permanent Datum above Mean Sea Level
LMF  .          Drill Floor              :Logging Measured From (Name of Logging Elevation Reference)
APD  .M          26.400000               :Elevation of Depth Reference (LMF) above Permanent Datum
#--------------------------------------------------
# 
#    DEPTH       DRHO         PEF        RHOB        CALI        TNPH        NPHI        CNTC        CFTC         GR         T2LM      CMRP_3MS      TCMR        KTIM        KSDR        CMFF         BFV     
#                                                                                                                                                                                                             
~A  
# ...
 4060.3932      -0.009       2.658       2.461       8.438       0.051       0.048    5279.164    4161.175      32.741      53.874       0.088       0.088       1.684       0.708       0.055       0.033
 4060.2408      -0.007       2.809       2.456       8.437       0.051       0.045    5254.229    4150.981      31.778      58.107       0.092       0.093       2.332       1.007       0.059       0.034
 4060.0884      -0.006       2.617       2.463       8.437       0.049       0.040    5293.621    4224.760      31.491      83.448       0.087       0.093       6.176       2.115       0.069       0.024
 4059.9360      -0.008       2.448       2.468       8.435       0.048       0.037    5350.583    4306.116      30.690      81.820       0.087       0.090       3.821       1.727       0.064       0.026
 4059.7836      -0.006       2.230       2.475       8.440       0.048       0.037    5433.737    4380.105      30.334     114.181       0.086       0.087       4.255       2.947       0.064       0.023
 4059.6312      -0.007       2.193       2.465       8.437       0.047       0.037    5491.124    4440.676      28.190      57.692       0.084       0.103       5.680       1.505       0.071       0.032
 4059.4788      -0.008       2.172       2.454       8.437       0.047       0.037    5484.757    4453.000      26.109      37.806       0.089       0.114       5.027       0.956       0.072       0.042
 4059.3264      -0.009       2.223       2.452       8.440       0.050       0.038    5393.264    4287.898      25.634      29.121       0.089       0.127       6.201       0.889       0.077       0.050
 4059.1740      -0.008       2.285       2.469       8.438       0.053       0.046    5313.737    4127.838      31.129      30.483       0.084       0.113       4.511       0.615       0.071       0.043
 4059.0216      -0.010       2.312       2.487       8.437       0.053       0.053    5235.600    4081.990      39.354      20.268       0.078       0.115       2.881       0.286       0.065       0.050
 4058.8692      -0.010       2.398       2.500       8.437       0.045       0.049    5101.795    4196.701      43.953      30.835       0.076       0.096       1.798       0.319       0.057       0.039
 4058.7168      -0.009       2.415       2.494       8.437       0.043       0.038    4902.856    4094.614      41.964      32.018       0.075       0.093       1.737       0.311       0.056       0.037
 4058.5644      -0.004       2.421       2.497       8.436       0.051       0.040    4829.592    3809.392      40.691      47.639       0.069       0.071       0.829       0.237       0.046       0.026
 4058.4120      -0.001       2.383       2.491       8.417       0.062       0.053    4800.626    3531.982      47.201      39.835       0.076       0.082       1.151       0.292       0.050       0.032
 4058.2596       0.001       2.449       2.479       8.417       0.065       0.058    4771.414    3441.530      47.411      57.683       0.083       0.090       3.053       0.856       0.061       0.028
 4058.1072      -0.000       2.377       2.454       8.416       0.063       0.055    4785.258    3497.679      44.385      68.699       0.093       0.104       9.103       2.213       0.077       0.027
 4057.9548      -0.004       2.267       2.433       8.416       0.065       0.052    4875.495    3521.799      35.478      58.995       0.102       0.119      13.729       2.787       0.086       0.033
 4057.8024      -0.007       2.195       2.425       8.417       0.066       0.059    4967.530    3573.686      32.666      39.070       0.105       0.130      11.172       1.719       0.086       0.043
 4057.6500      -0.010       2.242       2.418       8.416       0.066       0.061    4972.805    3585.339      29.036      26.412       0.107       0.148      10.005       1.327       0.087       0.060
 4057.4976      -0.009       2.268       2.418       8.416       0.068       0.060    4948.117    3524.769      26.252      22.803       0.117       0.158       8.897       1.306       0.086       0.072
 4057.3452      -0.009       2.243       2.415       8.416       0.070       0.064    4921.692    3452.673      25.902      26.385       0.125       0.152       8.403       1.485       0.085       0.067
 4057.1928      -0.010       2.305       2.410       8.417       0.074       0.069    4895.837    3357.019      25.561      23.659       0.132       0.160       8.405       1.452       0.085       0.075
 4057.0404      -0.009       2.487       2.409       8.416       0.071       0.075    4806.908    3363.871      26.678      25.426       0.139       0.168       7.462       2.043       0.083       0.085
 4056.8880      -0.007       2.628       2.410       8.416       0.065       0.070    4643.622    3360.069      27.252      41.764       0.129       0.143       9.481       2.938       0.086       0.057
 4056.7356      -0.011       2.467       2.417       8.415       0.067       0.068    4535.190    3244.232      37.968      33.955       0.109       0.126       4.441       1.178       0.072       0.055
 4056.5832      -0.011       2.410       2.436       8.416       0.069       0.072    4588.242    3235.506      46.278      48.863       0.100       0.106       3.844       1.188       0.067       0.038
 4056.4308      -0.009       2.463       2.454       8.430       0.070       0.062    4696.403    3299.066      49.829      66.001       0.090       0.090       3.857       1.121       0.064       0.026
 4056.2784      -0.011       2.478       2.452       8.437       0.060       0.053    4777.892    3561.640      40.720      41.522       0.091       0.094       1.487       0.539       0.055       0.040
 4056.1260      -0.014       2.319       2.436       8.437       0.060       0.043    4981.843    3702.240      31.959      36.607       0.088       0.097       1.487       0.468       0.055       0.042
 4055.9736      -0.012       2.238       2.438       8.436       0.060       0.051    5160.579    3845.834      29.629      32.255       0.083       0.101       1.904       0.430       0.058       0.043
 4055.8212      -0.008       2.434       2.453       8.436       0.057       0.053    5204.117    3955.765      29.020      26.147       0.083       0.108       1.761       0.365       0.057       0.050
 4055.6688      -0.005       2.586       2.471       8.433       0.051       0.049    5221.025    4118.219      30.727      32.299       0.078       0.105       2.098       0.514       0.060       0.046
 4055.5164      -0.004       2.519       2.474       8.434       0.049       0.040    5283.946    4228.831      32.148      42.259       0.079       0.092       1.463       0.521       0.054       0.038
 4055.3640      -0.006       2.344       2.469       8.434       0.048       0.039    5326.042    4278.594      33.125      67.943       0.090       0.097       2.865       1.613       0.062       0.034
 4055.2116      -0.007       2.234       2.461       8.434       0.049       0.039    5349.065    4274.650      30.388      73.394       0.091       0.095       3.223       1.734       0.063       0.032
 4055.0592      -0.009       2.199       2.457       8.434       0.050       0.040    5367.216    4255.213      27.475      70.735       0.095       0.096       3.416       1.705       0.064       0.032
 4054.9068      -0.009       2.166       2.457       8.436       0.050       0.042    5379.007    4286.904      27.224      66.764       0.090       0.094       3.984       1.417       0.065       0.029
 4054.7544      -0.009       2.203       2.463       8.437       0.048       0.040    5403.608    4354.756      30.173      80.665       0.085       0.087       4.599       1.494       0.064       0.023
 4054.6020      -0.009       2.296       2.466       8.436       0.044       0.038    5379.923    4455.884      30.419      54.311       0.081       0.081       1.883       0.503       0.055       0.026
 4054.4496      -0.010       2.363       2.472       8.434       0.044       0.035    5360.392    4430.193      30.869      45.497       0.081       0.081       1.304       0.350       0.051       0.029
