~VERSION INFORMATION
VERS.           2.0  :CWLS Log ASCII Standard - VERSION 2.0
WRAP.           NO   :One Line per depth step
CREA. 20000625 21.19 :LAS Creation date <yyyymmdd hh.mm>
#--------------------------------------------------
~WELL INFORMATION
#MNEM.UNIT      DATA             DESCRIPTION
#---- ------ --------------   -----------------------------
STRT .M      4145.7372      :START DEPTH
STOP .M      3918.2040      :STOP DEPTH
STEP .M        -0.1524      :STEP
NULL .          -999.25     :NULL VALUE
COMP .        INPEX BROWSE, LTD.                       :COMPANY
WELL .        GORGONICHTHYS-1                          :WELL
FLD  .        EXPLORATION                              :FIELD
LOC  .        Permit WA-285-P                          :LOCATION
CNTY .        SEDCO-703                                :COUNTY
STAT .        WA                                       :STATE
CTRY .        AUSTRALIA                                :COUNTRY
SRVC .        Schlumberger                             :SERVICE COMPANY
API  .                                                 :API NUMBER
DATE .        13:23:55  Sunday, June 25, 2000          :LOG DATE
UWI  .                                                 :UNIQUE WELL ID
#--------------------------------------------------
~CURVE INFORMATION
#MNEM.UNIT   API CODE DESCRIPTION
#---- -----  -------- -----------------------
DEPTH.M               :DEPTH (BOREHOLE)
DRHO .G/C3            :Bulk Density Correction
PEF  .                :Photoelectric Factor
RHOB .G/C3            :Bulk Density
CALI .IN              :Caliper
TNPH .V/V             :Thermal Neutron Porosity
NPHI .V/V             :Thermal Neutron Porosity (Ratio Method)
CNTC .HZ              :Corrected Near Thermal Counting Rate
CFTC .HZ              :Corrected Far Thermal Counting Rate
GR   .GAPI            :Gamma Ray
T2LM .MS              :T2 Logarithmic Mean
CMRP_3MS.V/V          :CMR 3ms Porosity
TCMR .V/V             :Total CMR Porosity
KTIM .MD              :Permeability from CMR - Timur Model
KSDR .MD              :Permeability from CMR - SDR Model
CMFF .V/V             :CMR Free Fluid
BFV  .V/V             :Bound Fluid Volume
#--------------------------------------------------
~PARAMETER INFORMATION
#MNEM.UNIT    VALUE                      DESCRIPTION
#---- -----   --------------------       ------------------------
PDAT .        L.A.T.                     :Permanent Datum
EPD  .M           0.000000               :Elevation of Permanent Datum above Mean Sea Level
LMF  .          Drill Floor              :Logging Measured From (Name of Logging Elevation Reference)
APD  .M          26.400000               :Elevation of Depth Reference (LMF) above Permanent Datum
#--------------------------------------------------
# 
#    DEPTH       DRHO         PEF        RHOB        CALI        TNPH        NPHI        CNTC        CFTC         GR         T2LM      CMRP_3MS      TCMR        KTIM        KSDR        CMFF         BFV     
#                                                                                                                                                                                                             
~A  
# ...
 3926.2812      -1.010     -14.310       1.508       8.672       0.338       0.335    1464.727     453.435      65.404    -999.250    -999.250    -999.250    -999.250    -999.250    -999.250    -999.250
 3926.1288      -1.002     -13.479       1.508       8.672       0.334       0.336    1453.285     453.435      64.263    -999.250    -999.250    -999.250    -999.250    -999.250    -999.250    -999.250
 3925.9764      -0.996     -13.816       1.506       8.667       0.331       0.334    1442.394     452.248      67.673    -999.250    -999.250    -999.250    -999.250    -999.250    -999.250    -999.250
 3925.8240      -1.027     -13.827       1.475       8.674       0.328       0.342    1433.039     451.579      72.226    -999.250    -999.250    -999.250    -999.250    -999.250    -999.250    -999.250
 3925.6716      -1.051     -14.499       1.487       8.672       0.317       0.341    1414.779     455.410      71.976    -999.250    -999.250    -999.250    -999.250    -999.250    -999.250    -999.250
 3925.5192      -1.058     -13.780       1.520       8.672       0.312       0.324    1398.737     454.415      69.941    -999.250    -999.250    -999.250    -999.250    -999.250    -999.250    -999.250
 3925.3668      -1.055     -13.870       1.575       8.672       0.304       0.317    1406.461     463.979      67.314    -999.250    -999.250    -999.250    -999.250    -999.250    -999.250    -999.250
 3925.2144      -1.071     -13.312       1.594       8.674       0.320       0.302    1435.425     459.187      66.940    -999.250    -999.250    -999.250    -999.250    -999.250    -999.250    -999.250
 3925.0620      -1.045     -13.649       1.597       8.677       0.311       0.310    1449.569     471.556      65.510    -999.250    -999.250    -999.250    -999.250    -999.250    -999.250    -999.250
 3924.9096      -1.011     -13.054       1.611       8.671       0.313       0.305    1464.867     475.249      61.515    -999.250    -999.250    -999.250    -999.250    -999.250    -999.250    -999.250
 3924.7572      -1.003     -12.518       1.572       8.674       0.305       0.315    1477.177     486.027      58.586    -999.250    -999.250    -999.250    -999.250    -999.250    -999.250    -999.250
 3924.6048      -1.000     -12.360       1.585       8.664       0.293       0.312    1476.162     498.060      58.837    -999.250    -999.250    -999.250    -999.250    -999.250    -999.250    -999.250
 3924.4524      -0.976     -12.276       1.590       8.679       0.289       0.300    1456.681     495.167      60.036    -999.250    -999.250    -999.250    -999.250    -999.250    -999.250    -999.250
 3924.3000      -0.981     -12.181       1.574       8.674       0.286       0.298    1451.630     496.762      61.610    -999.250    -999.250    -999.250    -999.250    -999.250    -999.250    -999.250
 3924.1476      -0.993     -11.972       1.541       8.673       0.295       0.295    1446.287     485.889      61.664    -999.250    -999.250    -999.250    -999.250    -999.250    -999.250    -999.250
 3923.9952      -0.999     -12.225       1.517       8.671       0.299       0.300    1447.547     482.371      62.329    -999.250    -999.250    -999.250    -999.250    -999.250    -999.250    -999.250
 3923.8428      -0.998     -12.478       1.518       8.674       0.296       0.302    1452.535     486.314      66.114    -999.250    -999.250    -999.250    -999.250    -999.250    -999.250    -999.250
 3923.6904      -1.007     -12.454       1.501       8.674       0.305       0.295    1459.049     480.236      65.960    -999.250    -999.250    -999.250    -999.250    -999.250    -999.250    -999.250
 3923.5380      -1.015     -12.988       1.480       8.670       0.294       0.307    1458.203     490.455      67.998    -999.250    -999.250    -999.250    -999.250    -999.250    -999.250    -999.250
 3923.3856      -1.016     -12.811       1.470       8.672       0.298       0.302    1466.257     489.559      65.593    -999.250    -999.250    -999.250    -999.250    -999.250    -999.250    -999.250
 3923.2332      -1.018     -12.680       1.465       8.672       0.280       0.303    1471.638     509.425      66.849    -999.250    -999.250    -999.250    -999.250    -999.250    -999.250    -999.250
 3923.0808      -0.973     -12.799       1.638       8.674       0.299       0.283    1477.486     492.408      67.702    -999.250    -999.250    -999.250    -999.250    -999.250    -999.250    -999.250
 3922.9284      -0.908     -12.985       1.878       8.668       0.289       0.299    1465.212     497.861      70.000    -999.250    -999.250    -999.250    -999.250    -999.250    -999.250    -999.250
 3922.7760      -0.816     -32.730       2.213       8.677       0.305       0.299    1463.476     481.882      70.206    -999.250    -999.250    -999.250    -999.250    -999.250    -999.250    -999.250
 3922.6236      -0.805      15.765       2.270       8.674       0.291       0.321    1466.120     495.853      70.308    -999.250    -999.250    -999.250    -999.250    -999.250    -999.250    -999.250
 3922.4712      -0.806       3.481       2.258       8.671       0.313       0.297    1468.759     476.145      70.749    -999.250    -999.250    -999.250    -999.250    -999.250    -999.250    -999.250
 3922.3188      -0.819       2.770       2.234       8.674       0.313       0.310    1465.349     474.730      71.940    -999.250    -999.250    -999.250    -999.250    -999.250    -999.250    -999.250
 3922.1664      -0.803       2.881       2.280       8.671       0.331       0.308    1495.944     468.719      68.732    -999.250    -999.250    -999.250    -999.250    -999.250    -999.250    -999.250
 3922.0140      -0.804       3.004       2.268       8.673       0.343       0.327    1526.795     468.719      64.113    -999.250    -999.250    -999.250    -999.250    -999.250    -999.250    -999.250
 3921.8616      -0.820       3.062       2.210       8.675       0.334       0.334    1522.792     474.429      66.503    -999.250    -999.250    -999.250    -999.250    -999.250    -999.250    -999.250
 3921.7092      -0.845       3.984       2.126       8.673       0.336       0.334    1526.064     474.429      69.219    -999.250    -999.250    -999.250    -999.250    -999.250    -999.250    -999.250
 3921.5568      -0.849       6.729       2.087       8.674       0.317       0.343    1512.069     486.450      71.871    -999.250    -999.250    -999.250    -999.250    -999.250    -999.250    -999.250
 3921.4044      -0.865      12.283       2.061       8.673       0.337       0.327    1505.430     467.040      68.695    -999.250    -999.250    -999.250    -999.250    -999.250    -999.250    -999.250
 3921.2520      -0.883      17.721       2.015       8.673       0.317       0.346    1471.010     472.968      66.692    -999.250    -999.250    -999.250    -999.250    -999.250    -999.250    -999.250
 3921.0996      -0.887      20.697       1.981       8.667       0.308       0.324    1481.436     485.239      68.448    -999.250    -999.250    -999.250    -999.250    -999.250    -999.250    -999.250
 3920.9472      -0.909      23.913       1.963       8.680       0.283       0.316    1498.581     515.696      67.882    -999.250    -999.250    -999.250    -999.250    -999.250    -999.250    -999.250
 3920.7948      -0.941      33.525       1.968       8.670       0.276       0.276    1512.423     527.967      68.922    -999.250    -999.250    -999.250    -999.250    -999.250    -999.250    -999.250
 3920.6424      -0.921      30.382       2.060       8.674       0.271       0.273    1546.727     546.264      65.870    -999.250    -999.250    -999.250    -999.250    -999.250    -999.250    -999.250
 3920.4900      -0.906      32.115       2.131       8.671       0.279       0.269    1591.279     552.361      64.225    -999.250    -999.250    -999.250    -999.250    -999.250    -999.250    -999.250
 3920.3376      -0.888      35.189       2.164       8.674       0.261       0.272    1613.787     582.864      61.925    -999.250    -999.250    -999.250    -999.250    -999.250    -999.250    -999.250
