~VERSION INFORMATION
VERS.           2.0  :CWLS Log ASCII Standard - VERSION 2.0
WRAP.           NO   :One Line per depth step
CREA. 20000625 21.19 :LAS Creation date <yyyymmdd hh.mm>
#--------------------------------------------------
~WELL INFORMATION
#MNEM.UNIT      DATA             DESCRIPTION
#---- ------ --------------   -----------------------------
STRT .M      4145.7372      :START DEPTH
STOP .M      3918.2040      :STOP DEPTH
STEP .M        -0.1524      :STEP
NULL .          -999.25     :NULL VALUE
COMP .        INPEX BROWSE, LTD.                       :COMPANY
WELL .        GORGONICHTHYS-1                          :WELL
FLD  .        EXPLORATION                              :FIELD
LOC  .        Permit WA-285-P                          :LOCATION
CNTY .        SEDCO-703                                :COUNTY
STAT .        WA                                       :STATE
CTRY .        AUSTRALIA                                :COUNTRY
SRVC .        Schlumberger                             :SERVICE COMPANY
API  .                                                 :API NUMBER
DATE .        13:23:55  Sunday, June 25, 2000          :LOG DATE
UWI  .                                                 :UNIQUE WELL ID
#--------------------------------------------------
~CURVE INFORMATION
#MNEM.UNIT   API CODE DESCRIPTION
#---- -----  -------- -----------------------
DEPTH.M               :DEPTH (BOREHOLE)
DRHO .G/C3            :Bulk Density Correction
PEF  .                :Photoelectric Factor
RHOB .G/C3            :Bulk Density
CALI .IN              :Caliper
TNPH .V/V             :Thermal Neutron Porosity
NPHI .V/V             :Thermal Neutron Porosity (Ratio Method)
CNTC .HZ              :Corrected Near Thermal Counting Rate
CFTC .HZ              :Corrected Far Thermal Counting Rate
GR   .GAPI            :Gamma Ray
T2LM .MS              :T2 Logarithmic Mean
CMRP_3MS.V/V          :CMR 3ms Porosity
TCMR .V/V             :Total CMR Porosity
KTIM .MD              :Permeability from CMR - Timur Model
KSDR .MD              :Permeability from CMR - SDR Model
CMFF .V/V             :CMR Free Fluid
BFV  .V/V             :Bound Fluid Volume
#--------------------------------------------------
~PARAMETER INFORMATION
#MNEM.UNIT    VALUE                      DESCRIPTION
#---- -----   --------------------       ------------------------
PDAT .        L.A.T.                     :Permanent Datum
EPD  .M           0.000000               :Elevation of Permanent Datum above Mean Sea Level
LMF  .          Drill Floor              :Logging Measured From (Name of Logging Elevation Reference)
APD  .M          26.400000               :Elevation of Depth Reference (LMF) above Permanent Datum
#--------------------------------------------------
# 
#    DEPTH       DRHO         PEF        RHOB        CALI        TNPH        NPHI        CNTC        CFTC         GR         T2LM      CMRP_3MS      TCMR        KTIM        KSDR        CMFF         BFV     
#                                                                                                                                                                                                             
~A  
# ...
 4029.9132      -0.009       2.616       2.521       8.476       0.095       0.104    4229.420    2608.502      56.976      31.646       0.068       0.097       1.610       0.358       0.056       0.042
 4029.7608      -0.006       2.798       2.544       8.476       0.088       0.097    4180.546    2667.922      59.980      20.370       0.058       0.086       0.553       0.089       0.043       0.042
 4029.6084      -0.006       3.003       2.544       8.476       0.077       0.082    4093.413    2762.573      53.794      30.431       0.056       0.073       0.323       0.105       0.038       0.035
 4029.4560      -0.010       2.758       2.552       8.476       0.084       0.071    3973.836    2584.943      61.595      47.223       0.049       0.057       0.186       0.092       0.032       0.024
 4029.3036      -0.011       2.885       2.615       8.474       0.112       0.105    3843.747    2198.170      82.355      33.266       0.045       0.052       0.080       0.032       0.027       0.025
 4029.1512      -0.003       3.124       2.684       8.477       0.131       0.147    3853.561    2034.570      98.608      25.578       0.040       0.051       0.030       0.018       0.020       0.030
 4028.9988      -0.003       3.285       2.676       8.476       0.115       0.138    3930.616    2220.948      96.485      44.749       0.044       0.052       0.094       0.057       0.028       0.024
 4028.8464      -0.013       2.956       2.561       8.475       0.086       0.100    4079.271    2628.315      80.709      45.971       0.068       0.078       0.780       0.312       0.046       0.032
 4028.6940      -0.015       2.519       2.451       8.472       0.077       0.060    4338.091    2931.767      61.360      40.710       0.088       0.110       3.614       0.976       0.067       0.043
 4028.5416      -0.014       2.365       2.388       8.457       0.082       0.066    4548.119    2995.933      42.787      52.877       0.102       0.113       8.318       1.844       0.078       0.035
 4028.3892      -0.016       2.291       2.368       8.457       0.087       0.083    4599.890    2952.063      30.089      50.345       0.119       0.129      11.821       2.817       0.087       0.042
 4028.2368      -0.015       2.256       2.375       8.457       0.088       0.088    4537.836    2897.829      24.284      56.439       0.127       0.132      17.484       3.898       0.093       0.039
 4028.0844      -0.013       2.191       2.394       8.459       0.084       0.087    4566.513    2975.472      24.001      59.906       0.117       0.122      14.574       3.156       0.088       0.034
 4027.9320      -0.010       2.230       2.421       8.458       0.078       0.079    4695.879    3153.211      25.214      50.039       0.107       0.112       5.793       1.578       0.074       0.038
 4027.7796      -0.008       2.242       2.453       8.458       0.070       0.069    4825.570    3387.708      28.028      62.077       0.095       0.103       5.508       1.750       0.071       0.032
 4027.6272      -0.005       2.335       2.473       8.458       0.062       0.058    4913.191    3610.151      29.602      40.447       0.076       0.101       3.404       0.669       0.065       0.036
 4027.4748      -0.007       2.314       2.471       8.456       0.058       0.052    5013.758    3772.201      28.852      37.830       0.074       0.100       2.149       0.579       0.059       0.041
 4027.3224      -0.007       2.272       2.469       8.460       0.058       0.052    5046.022    3810.406      27.499      71.264       0.077       0.087       3.780       1.175       0.063       0.025
 4027.1700      -0.008       2.234       2.467       8.457       0.057       0.052    5039.677    3815.873      26.602      47.594       0.073       0.086       2.135       0.496       0.057       0.029
 4027.0176      -0.003       2.218       2.466       8.458       0.058       0.052    4981.579    3764.534      26.708      60.072       0.073       0.082       2.982       0.666       0.059       0.023
 4026.8652      -0.004       2.236       2.443       8.458       0.061       0.052    4942.970    3664.724      25.981      57.719       0.082       0.085       2.399       0.705       0.058       0.027
 4026.7128      -0.007       2.204       2.425       8.458       0.066       0.058    4910.469    3539.178      25.857      42.839       0.082       0.092       2.642       0.521       0.060       0.031
 4026.5604      -0.008       2.300       2.415       8.460       0.070       0.062    4850.674    3406.704      24.733      28.339       0.080       0.104       2.160       0.373       0.060       0.044
 4026.4080      -0.006       2.396       2.411       8.459       0.073       0.068    4766.420    3293.543      22.519      22.811       0.090       0.118       2.701       0.398       0.064       0.054
 4026.2556      -0.010       2.430       2.395       8.459       0.077       0.073    4733.583    3200.382      20.053      25.599       0.103       0.121       2.554       0.553       0.063       0.057
 4026.1032      -0.011       2.319       2.386       8.460       0.079       0.076    4722.128    3151.062      18.945      28.160       0.109       0.123       3.129       0.725       0.066       0.057
 4025.9508      -0.011       2.256       2.383       8.460       0.078       0.076    4703.146    3158.396      20.508      40.538       0.117       0.118       4.439       1.296       0.071       0.047
 4025.7984      -0.010       2.223       2.384       8.459       0.077       0.073    4724.741    3188.923      21.794      42.114       0.118       0.119       4.660       1.426       0.072       0.047
 4025.6460      -0.009       2.264       2.383       8.459       0.077       0.073    4772.314    3225.484      22.508      52.882       0.112       0.117       5.967       2.106       0.075       0.042
 4025.4936      -0.009       2.204       2.399       8.458       0.075       0.073    4852.155    3312.503      22.942      51.602       0.108       0.116       7.254       1.947       0.077       0.039
 4025.3412      -0.008       2.209       2.427       8.459       0.070       0.068    4901.173    3445.948      25.091      69.986       0.097       0.099       4.510       1.851       0.068       0.031
 4025.1888      -0.005       2.190       2.463       8.459       0.063       0.062    4836.187    3536.157      28.086      44.388       0.089       0.096       2.376       0.676       0.060       0.036
 4025.0364      -0.005       2.243       2.485       8.459       0.067       0.061    4705.038    3356.305      33.444      37.971       0.076       0.092       1.405       0.410       0.054       0.038
 4024.8840      -0.005       2.309       2.510       8.459       0.077       0.077    4636.983    3133.380      47.657      26.169       0.061       0.079       0.448       0.105       0.041       0.038
 4024.7316      -0.006       2.401       2.521       8.458       0.082       0.085    4590.875    3028.659      56.377      21.487       0.059       0.087       0.624       0.104       0.044       0.042
 4024.5792      -0.009       2.430       2.510       8.457       0.073       0.077    4589.393    3165.106      56.940      20.479       0.056       0.087       0.591       0.096       0.044       0.043
 4024.4268      -0.009       2.406       2.493       8.458       0.068       0.060    4710.119    3344.741      44.786      30.968       0.058       0.077       0.594       0.138       0.044       0.034
 4024.2744      -0.007       2.346       2.469       8.460       0.068       0.054    4832.984    3439.076      34.887      64.749       0.074       0.085       1.841       0.860       0.055       0.029
 4024.1220      -0.010       2.308       2.438       8.458       0.069       0.061    4853.466    3426.719      28.752      53.230       0.079       0.103       4.971       1.276       0.070       0.033
 4023.9696      -0.012       2.298       2.399       8.459       0.075       0.070    4807.624    3293.566      25.115      89.632       0.086       0.101      10.983       3.336       0.077       0.024
