~VERSION INFORMATION
VERS.           2.0  :CWLS Log ASCII Standard - VERSION 2.0
WRAP.           NO   :One Line per depth step
CREA. 20000625 21.19 :LAS Creation date <yyyymmdd hh.mm>
#--------------------------------------------------
~WELL INFORMATION
#MNEM.UNIT      DATA             DESCRIPTION
#---- ------ --------------   -----------------------------
STRT .M      4145.7372      :START DEPTH
STOP .M      3918.2040      :STOP DEPTH
STEP .M        -0.1524      :STEP
NULL .          -999.25     :NULL VALUE
COMP .        INPEX BROWSE, LTD.                       :COMPANY
WELL .        GORGONICHTHYS-1                          :WELL
FLD  .        EXPLORATION                              :FIELD
LOC  .        Permit WA-285-P                          :LOCATION
CNTY .        SEDCO-703                                :COUNTY
STAT .        WA                                       :STATE
CTRY .        AUSTRALIA                                :COUNTRY
SRVC .        Schlumberger                             :SERVICE COMPANY
API  .                                                 :API NUMBER
DATE .        13:23:55  Sunday, June 25, 2000          :LOG DATE
UWI  .                                                 :UNIQUE WELL ID
#--------------------------------------------------
~CURVE INFORMATION
#MNEM.UNIT   API CODE DESCRIPTION
#---- -----  -------- -----------------------
DEPTH.M               :DEPTH (BOREHOLE)
DRHO .G/C3            :Bulk Density Correction
PEF  .                :Photoelectric Factor
RHOB .G/C3            :Bulk Density
CALI .IN              :Caliper
TNPH .V/V             :Thermal Neutron Porosity
NPHI .V/V             :Thermal Neutron Porosity (Ratio Method)
CNTC .HZ              :Corrected Near Thermal Counting Rate
CFTC .HZ              :Corrected Far Thermal Counting Rate
GR   .GAPI            :Gamma Ray
T2LM .MS              :T2 Logarithmic Mean
CMRP_3MS.V/V          :CMR 3ms Porosity
TCMR .V/V             :Total CMR Porosity
KTIM .MD              :Permeability from CMR - Timur Model
KSDR .MD              :Permeability from CMR - SDR Model
CMFF .V/V             :CMR Free Fluid
BFV  .V/V             :Bound Fluid Volume
#--------------------------------------------------
~PARAMETER INFORMATION
#MNEM.UNIT    VALUE                      DESCRIPTION
#---- -----   --------------------       ------------------------
PDAT .        L.A.T.                     :Permanent Datum
EPD  .M           0.000000               :Elevation of Permanent Datum above Mean Sea Level
LMF  .          Drill Floor              :Logging Measured From (Name of Logging Elevation Reference)
APD  .M          26.400000               :Elevation of Depth Reference (LMF) above Permanent Datum
#--------------------------------------------------
# 
#    DEPTH       DRHO         PEF        RHOB        CALI        TNPH        NPHI        CNTC        CFTC         GR         T2LM      CMRP_3MS      TCMR        KTIM        KSDR        CMFF         BFV     
#                                                                                                                                                                                                             
~A  
# ...
 3968.9532       0.076       8.406       2.387      10.456       0.037       0.018    4142.161    3393.640      38.138       5.888       0.408       0.536       0.101      11.421       0.006       0.530
 3968.8008       0.081       8.953       2.372      10.543       0.032       0.020    4044.097    3418.597      35.257       6.180       0.428       0.539       0.028      12.886       0.003       0.536
 3968.6484       0.093       9.604       2.338      10.887       0.030       0.016    3929.205    3342.836      33.148       6.140       0.488       0.606       0.000      20.319       0.000       0.606
 3968.4960       0.105      10.612       2.312      11.205       0.027       0.014    3825.268    3291.496      29.907       6.067       0.518       0.651       0.000      26.486       0.000       0.651
 3968.3436       0.111      11.481       2.290      11.115       0.028       0.012    3743.309    3220.118      28.994       6.743       0.569       0.678       0.000      38.369       0.000       0.678
 3968.1912       0.123      11.549       2.260      11.032       0.027       0.011    3754.808    3256.020      30.480       6.602       0.587       0.704       0.000      42.920       0.000       0.704
 3968.0388       0.125      11.309       2.186      10.530       0.029       0.011    3763.576    3272.304      31.219       6.527       0.597       0.723       0.000      46.613       0.000       0.723
 3967.8864       0.132      12.276       2.184      10.011       0.026       0.013    3812.974    3429.870      30.157       6.745       0.613       0.726       0.000      50.601       0.000       0.726
 3967.7340       0.146      12.627       2.220       9.918       0.020       0.011    3719.247    3548.501      30.399       6.215       0.607       0.745       0.000      47.528       0.000       0.745
 3967.5816       0.175      12.280       2.316       9.883       0.015       0.009    3663.460    3636.260      30.942       6.155       0.585       0.721       0.000      40.920       0.000       0.721
 3967.4292       0.165      11.471       2.308       9.855       0.028       0.009    3598.476    3209.452      41.288       6.041       0.579       0.715       0.000      38.182       0.000       0.715
 3967.2768       0.165      11.875       2.300       9.782       0.037       0.017    3658.736    3055.855      46.248       6.058       0.575       0.709       0.000      37.129       0.000       0.709
 3967.1244       0.157      12.997       2.264       9.803       0.046       0.018    3772.779    2957.527      50.645       6.383       0.550       0.668       0.000      32.400       0.000       0.668
 3966.9720       0.152      13.175       2.248       9.872       0.033       0.016    4084.753    3487.537      41.544       6.453       0.543       0.660       0.000      31.577       0.000       0.660
 3966.8196       0.160      12.675       2.259       9.841       0.027       0.009    4328.466    3889.021      37.443       6.534       0.522       0.636       0.003      27.920       0.001       0.635
 3966.6672       0.192      12.422       2.355      10.207       0.019       0.006    4570.234    4330.823      32.313       6.287       0.483       0.608       0.056      21.598       0.004       0.604
 3966.5148       0.187      11.332       2.406      10.352       0.014       0.005    4692.040    4645.919      32.204       6.411       0.424       0.528       0.198      12.758       0.008       0.519
 3966.3624       0.194       9.505       2.460      10.302       0.013       0.004    4873.474    4887.991      29.795       6.163       0.367       0.469       0.190       7.326       0.009       0.459
 3966.2100       0.201       8.084       2.484       9.846       0.014       0.004    4997.546    5044.340      30.297       5.847       0.329       0.426       0.069       4.511       0.006       0.420
 3966.0576       0.207       7.426       2.512       9.774       0.016       0.002    5159.063    5121.454      30.840       5.473       0.315       0.422       0.093       3.790       0.007       0.415
 3965.9052       0.229       7.022       2.552       9.793       0.016       0.004    5307.255    5225.287      32.552       5.183       0.317       0.439       0.086       3.992       0.007       0.432
 3965.7528       0.223       6.679       2.540       9.808       0.015       0.005    5444.186    5408.170      31.889       5.740       0.293       0.398       0.328       3.304       0.014       0.384
 3965.6004       0.201       6.705       2.500      10.198       0.013       0.004    5428.808    5458.541      29.083       5.977       0.263       0.351       0.407       2.160       0.017       0.333
 3965.4480       0.180       6.967       2.496      10.521       0.012       0.002    5439.452    5428.225      27.763       6.832       0.237       0.302       0.336       1.562       0.018       0.284
 3965.2956       0.187       6.817       2.535      10.214       0.014       0.004    5351.363    5329.216      28.384       7.345       0.217       0.274       0.465       1.224       0.023       0.252
 3965.1432       0.189       6.282       2.563      10.114       0.019       0.005    5179.134    4914.987      29.310       6.816       0.281       0.355       0.324       2.937       0.015       0.339
 3964.9908       0.180       5.860       2.486       9.891       0.043       0.013    4927.298    3926.068      29.583       6.521       0.387       0.496       0.234      10.274       0.010       0.486
 3964.8384       0.172       6.115       2.409      10.267       0.079       0.054    4446.987    2828.828      29.952       6.254       0.430       0.542       0.035      13.480       0.003       0.538
 3964.6860       0.180       8.247       2.347      10.397       0.121       0.115    3983.439    2092.736      43.828       5.896       0.461       0.587       0.000      16.475       0.000       0.587
 3964.5336       0.182      11.208       2.359      10.269       0.125       0.157    3629.380    1882.941      56.393       6.141       0.510       0.633       0.000      24.258       0.000       0.633
 3964.3812       0.158      13.165       2.285      10.235       0.121       0.138    3345.414    1764.075      67.412       6.468       0.547       0.659       0.000      31.581       0.000       0.659
 3964.2288       0.139      12.878       2.250      11.090       0.111       0.114    3121.963    1686.346      65.799       6.371       0.542       0.653       0.000      29.505       0.000       0.653
 3964.0764       0.103      15.158       2.164      11.836       0.101       0.099    3055.427    1690.054      63.938       6.844       0.475       0.559       0.007      18.359       0.001       0.558
 3963.9240       0.089      17.497       2.184      11.965       0.094       0.104    2967.839    1695.446      58.370       6.904       0.400       0.472       0.001       9.487       0.001       0.472
 3963.7716       0.102      18.276       2.283      11.715       0.080       0.100    2955.046    1810.670      53.281       6.743       0.270       0.341       0.045       2.468       0.006       0.335
 3963.6192       0.114      14.901       2.373      11.556       0.068       0.070    3018.664    1980.645      51.328       5.502       0.162       0.244       0.115       0.429       0.013       0.231
 3963.4668       0.129      13.115       2.403      11.515       0.054       0.040    3101.362    2202.861      56.652       4.960       0.167       0.265       0.128       0.488       0.013       0.253
 3963.3144       0.136      11.600       2.326      11.464       0.051       0.020    3272.392    2368.737      62.219       5.082       0.145       0.233       0.228       0.303       0.019       0.214
 3963.1620       0.106      13.185       2.256      11.322       0.055       0.023    3576.409    2542.173      61.969       6.345       0.124       0.189       0.319       0.207       0.026       0.164
 3963.0096       0.066      13.714       2.241      11.095       0.064       0.025    4013.327    2716.359      52.547       8.848       0.103       0.137       0.224       0.109       0.028       0.109
