~VERSION INFORMATION
VERS.           2.0  :CWLS Log ASCII Standard - VERSION 2.0
WRAP.           NO   :One Line per depth step
CREA. 20000625 21.19 :LAS Creation date <yyyymmdd hh.mm>
#--------------------------------------------------
~WELL INFORMATION
#MNEM.UNIT      DATA             DESCRIPTION
#---- ------ --------------   -----------------------------
STRT .M      4145.7372      :START DEPTH
STOP .M      3918.2040      :STOP DEPTH
STEP .M        -0.1524      :STEP
NULL .          -999.25     :NULL VALUE
COMP .        INPEX BROWSE, LTD.                       :COMPANY
WELL .        GORGONICHTHYS-1                          :WELL
FLD  .        EXPLORATION                              :FIELD
LOC  .        Permit WA-285-P                          :LOCATION
CNTY .        SEDCO-703                                :COUNTY
STAT .        WA                                       :STATE
CTRY .        AUSTRALIA                                :COUNTRY
SRVC .        Schlumberger                             :SERVICE COMPANY
API  .                                                 :API NUMBER
DATE .        13:23:55  Sunday, June 25, 2000          :LOG DATE
UWI  .                                                 :UNIQUE WELL ID
#--------------------------------------------------
~CURVE INFORMATION
#MNEM.UNIT   API CODE DESCRIPTION
#---- -----  -------- -----------------------
DEPTH.M               :DEPTH (BOREHOLE)
DRHO .G/C3            :Bulk Density Correction
PEF  .                :Photoelectric Factor
RHOB .G/C3            :Bulk Density
CALI .IN              :Caliper
TNPH .V/V             :Thermal Neutron Porosity
NPHI .V/V             :Thermal Neutron Porosity (Ratio Method)
CNTC .HZ              :Corrected Near Thermal Counting Rate
CFTC .HZ              :Corrected Far Thermal Counting Rate
GR   .GAPI            :Gamma Ray
T2LM .MS              :T2 Logarithmic Mean
CMRP_3MS.V/V          :CMR 3ms Porosity
TCMR .V/V             :Total CMR Porosity
KTIM .MD              :Permeability from CMR - Timur Model
KSDR .MD              :Permeability from CMR - SDR Model
CMFF .V/V             :CMR Free Fluid
BFV  .V/V             :Bound Fluid Volume
#--------------------------------------------------
~PARAMETER INFORMATION
#MNEM.UNIT    VALUE                      DESCRIPTION
#---- -----   --------------------       ------------------------
PDAT .        L.A.T.                     :Permanent Datum
EPD  .M           0.000000               :Elevation of Permanent Datum above Mean Sea Level
LMF  .          Drill Floor              :Logging Measured From (Name of Logging Elevation Reference)
APD  .M          26.400000               :Elevation of Depth Reference (LMF) above Permanent Datum
#--------------------------------------------------
# 
#    DEPTH       DRHO         PEF        RHOB        CALI        TNPH        NPHI        CNTC        CFTC         GR         T2LM      CMRP_3MS      TCMR        KTIM        KSDR        CMFF         BFV     
#                                                                                                                                                                                                             
~A  
# ...
 4072.5852      -0.010       2.349       2.501       8.401       0.063       0.054    4843.597    3539.638      35.318      40.705       0.071       0.085       2.834       0.352       0.060       0.026
 4072.4328      -0.010       2.344       2.505       8.400       0.072       0.061    4630.482    3223.921      46.515      44.771       0.054       0.066       1.291       0.150       0.052       0.013
 4072.2804      -0.008       2.410       2.513       8.401       0.098       0.089    4518.933    2750.957      63.735     100.465       0.049       0.051       0.410       0.284       0.048       0.003
 4072.1280      -0.008       2.646       2.519       8.400       0.106       0.121    4483.514    2632.069      71.266      95.169       0.046       0.046       0.221       0.158       0.045       0.001
 4071.9756      -0.009       3.011       2.509       8.401       0.087       0.110    4495.295    2879.336      59.286      81.578       0.052       0.052       0.397       0.196       0.046       0.006
 4071.8232      -0.011       3.026       2.489       8.401       0.062       0.074    4650.849    3416.454      43.098      32.891       0.059       0.071       0.941       0.112       0.047       0.025
 4071.6708      -0.013       2.834       2.472       8.400       0.051       0.042    4945.342    3892.212      30.783      24.841       0.069       0.091       1.196       0.168       0.052       0.039
 4071.5184      -0.012       2.584       2.468       8.401       0.046       0.035    5175.373    4228.116      27.446      32.934       0.070       0.088       1.498       0.264       0.054       0.034
 4071.3660      -0.009       2.578       2.474       8.400       0.046       0.035    5174.336    4233.833      27.722      29.007       0.063       0.084       1.029       0.167       0.050       0.034
 4071.2136      -0.007       2.594       2.481       8.400       0.048       0.040    5027.153    4059.218      31.547      39.961       0.061       0.073       1.128       0.186       0.049       0.025
 4071.0612      -0.004       2.630       2.488       8.396       0.049       0.049    4798.675    3840.081      34.257      94.936       0.059       0.059       0.582       0.438       0.044       0.015
 4070.9088      -0.001       2.719       2.507       8.376       0.052       0.054    4591.456    3608.726      41.254      76.124       0.052       0.052       0.250       0.175       0.036       0.016
 4070.7564       0.001       2.719       2.519       8.377       0.050       0.054    4460.247    3539.211      44.488      62.759       0.046       0.048       0.143       0.082       0.033       0.015
 4070.6040      -0.001       2.845       2.516       8.379       0.051       0.044    4377.642    3459.633      46.108      48.536       0.050       0.063       0.798       0.151       0.045       0.019
 4070.4516      -0.004       2.734       2.499       8.378       0.050       0.040    4405.343    3488.568      42.637      39.287       0.055       0.071       0.784       0.156       0.045       0.026
 4070.2992      -0.003       2.806       2.501       8.379       0.050       0.040    4583.137    3635.909      39.253      45.568       0.058       0.070       0.846       0.195       0.046       0.024
 4070.1468      -0.006       2.680       2.507       8.397       0.050       0.037    4871.000    3857.752      37.851      65.260       0.064       0.067       0.813       0.354       0.045       0.023
 4069.9944      -0.006       2.576       2.516       8.400       0.044       0.031    5120.408    4235.329      32.460     108.262       0.068       0.068       1.579       0.993       0.055       0.013
 4069.8420      -0.009       2.431       2.498       8.400       0.042       0.023    5370.649    4509.177      27.435     113.798       0.074       0.074       2.791       1.584       0.060       0.014
 4069.6896      -0.010       2.345       2.479       8.405       0.043       0.025    5551.749    4637.376      22.518     113.669       0.077       0.077       3.649       1.789       0.065       0.012
 4069.5372      -0.014       2.373       2.452       8.406       0.046       0.032    5571.988    4547.567      19.100      87.764       0.091       0.099      15.016       2.952       0.079       0.020
 4069.3848      -0.014       2.351       2.438       8.407       0.052       0.043    5465.820    4292.967      18.701      48.013       0.104       0.126      11.443       2.307       0.086       0.040
 4069.2324      -0.013       2.389       2.429       8.407       0.055       0.051    5346.554    4105.957      17.577      30.148       0.114       0.146       7.561       1.635       0.082       0.063
 4069.0800      -0.012       2.382       2.423       8.406       0.056       0.052    5212.756    3984.535      18.046      38.327       0.120       0.147      10.388       2.773       0.088       0.059
 4068.9276      -0.013       2.331       2.427       8.407       0.058       0.051    5025.326    3795.216      18.684      53.568       0.111       0.133      11.964       3.572       0.088       0.045
 4068.7752      -0.011       2.294       2.445       8.408       0.072       0.059    4672.297    3236.597      21.961      86.394       0.100       0.111      13.768       4.578       0.083       0.028
 4068.6228      -0.009       2.261       2.485       8.405       0.101       0.102    4325.916    2593.620      31.716     104.425       0.087       0.095      10.908       3.499       0.074       0.020
 4068.4704      -0.006       2.654       2.519       8.427       0.132       0.147    4133.091    2180.227      54.599      77.410       0.084       0.086       2.453       1.317       0.058       0.028
 4068.3180      -0.005       2.963       2.540       8.435       0.110       0.149    4034.937    2321.349      74.358      98.428       0.075       0.075       2.615       1.229       0.057       0.018
 4068.1656      -0.009       3.462       2.515       8.434       0.079       0.104    4072.711    2724.700      71.800      70.679       0.077       0.077       1.930       0.720       0.054       0.023
 4068.0132      -0.010       3.029       2.483       8.435       0.065       0.059    4334.783    3135.085      52.044      74.856       0.086       0.086       4.184       1.247       0.063       0.023
 4067.8608      -0.012       2.683       2.454       8.433       0.062       0.048    4596.724    3377.505      33.749     125.523       0.099       0.099      17.922       6.127       0.086       0.013
 4067.7084      -0.012       2.511       2.448       8.435       0.059       0.053    4681.306    3507.061      29.873     143.954       0.108       0.108      30.344      11.355       0.094       0.014
 4067.5560      -0.010       2.468       2.450       8.434       0.058       0.053    4729.534    3559.291      28.334     163.125       0.105       0.105      26.621      12.811       0.094       0.011
 4067.4036      -0.007       2.522       2.454       8.435       0.055       0.052    4738.573    3647.473      25.126     172.117       0.103       0.103      26.424      13.529       0.096       0.007
 4067.2512      -0.003       2.472       2.458       8.434       0.054       0.047    4740.444    3665.419      23.379     170.719       0.101       0.101      24.597      12.337       0.096       0.005
 4067.0988      -0.004       2.377       2.462       8.434       0.053       0.047    4760.222    3712.267      23.338     164.819       0.100       0.100      22.164      10.795       0.094       0.005
 4066.9464      -0.006       2.303       2.463       8.434       0.054       0.045    4790.621    3719.126      23.686     156.988       0.096       0.096      16.543       8.213       0.089       0.006
 4066.7940      -0.003       2.231       2.469       8.435       0.054       0.045    4756.159    3678.594      24.876     129.749       0.095       0.095      14.804       5.431       0.086       0.009
 4066.6416      -0.001       2.233       2.478       8.434       0.056       0.048    4743.388    3624.363      28.791      77.988       0.094       0.104      12.426       2.891       0.080       0.025
