~VERSION INFORMATION
VERS.           2.0  :CWLS Log ASCII Standard - VERSION 2.0
WRAP.           NO   :One Line per depth step
CREA. 20000625 21.19 :LAS Creation date <yyyymmdd hh.mm>
#--------------------------------------------------
~WELL INFORMATION
#MNEM.UNIT      DATA             DESCRIPTION
#---- ------ --------------   -----------------------------
STRT .M      4145.7372      :START DEPTH
STOP .M      3918.2040      :STOP DEPTH
STEP .M        -0.1524      :STEP
NULL .          -999.25     :NULL VALUE
COMP .        INPEX BROWSE, LTD.                       :COMPANY
WELL .        GORGONICHTHYS-1                          :WELL
FLD  .        EXPLORATION                              :FIELD
LOC  .        Permit WA-285-P                          :LOCATION
CNTY .        SEDCO-703                                :COUNTY
STAT .        WA                                       :STATE
CTRY .        AUSTRALIA                                :COUNTRY
SRVC .        Schlumberger                             :SERVICE COMPANY
API  .                                                 :API NUMBER
DATE .        13:23:55  Sunday, June 25, 2000          :LOG DATE
UWI  .                                                 :UNIQUE WELL ID
#--------------------------------------------------
~CURVE INFORMATION
#MNEM.UNIT   API CODE DESCRIPTION
#---- -----  -------- -----------------------
DEPTH.M               :DEPTH (BOREHOLE)
DRHO .G/C3            :Bulk Density Correction
PEF  .                :Photoelectric Factor
RHOB .G/C3            :Bulk Density
CALI .IN              :Caliper
TNPH .V/V             :Thermal Neutron Porosity
NPHI .V/V             :Thermal Neutron Porosity (Ratio Method)
CNTC .HZ              :Corrected Near Thermal Counting Rate
CFTC .HZ              :Corrected Far Thermal Counting Rate
GR   .GAPI            :Gamma Ray
T2LM .MS              :T2 Logarithmic Mean
CMRP_3MS.V/V          :CMR 3ms Porosity
TCMR .V/V             :Total CMR Porosity
KTIM .MD              :Permeability from CMR - Timur Model
KSDR .MD              :Permeability from CMR - SDR Model
CMFF .V/V             :CMR Free Fluid
BFV  .V/V             :Bound Fluid Volume
#--------------------------------------------------
~PARAMETER INFORMATION
#MNEM.UNIT    VALUE                      DESCRIPTION
#---- -----   --------------------       ------------------------
PDAT .        L.A.T.                     :Permanent Datum
EPD  .M           0.000000               :Elevation of Permanent Datum above Mean Sea Level
LMF  .          Drill Floor              :Logging Measured From (Name of Logging Elevation Reference)
APD  .M          26.400000               :Elevation of Depth Reference (LMF) above Permanent Datum
#--------------------------------------------------
# 
#    DEPTH       DRHO         PEF        RHOB        CALI        TNPH        NPHI        CNTC        CFTC         GR         T2LM      CMRP_3MS      TCMR        KTIM        KSDR        CMFF         BFV     
#                                                                                                                                                                                                             
~A  
# ...
 3987.2412      -0.005       2.317       2.563       8.484       0.093       0.103    4220.790    2627.485      58.879      19.878       0.038       0.064       0.210       0.026       0.034       0.030
 3987.0888      -0.003       2.957       2.588       8.707       0.114       0.141    3833.449    2157.419      79.286      10.096       0.020       0.037       0.010       0.001       0.015       0.021
 3986.9364      -0.002       3.743       2.605       8.629       0.085       0.133    3799.862    2452.924      83.836      11.819       0.027       0.039       0.007       0.001       0.014       0.025
 3986.7840      -0.005       4.576       2.579       8.508       0.065       0.080    4054.830    2939.630      68.665      15.709       0.040       0.046       0.009       0.004       0.014       0.032
 3986.6316      -0.008       3.593       2.550       8.494       0.048       0.027    4517.845    3625.302      47.887      34.759       0.042       0.046       0.047       0.022       0.023       0.023
 3986.4792      -0.012       2.795       2.529       8.492       0.039       0.018    4933.165    4231.438      37.140      99.908       0.039       0.039       0.041       0.092       0.027       0.012
 3986.3268      -0.011       2.575       2.536       8.494       0.031       0.020    5329.246    4872.127      36.005     112.820       0.046       0.047       0.162       0.256       0.036       0.011
 3986.1744      -0.010       2.458       2.538       8.493       0.028       0.018    5565.526    5215.847      33.249     317.765       0.045       0.045       0.193       1.614       0.044       0.001
 3986.0220      -0.009       2.421       2.531       8.485       0.026       0.016    5662.357    5400.189      29.767     269.874       0.043       0.043       0.150       1.041       0.041       0.002
 3985.8696      -0.010       2.306       2.520       8.484       0.026       0.013    5814.125    5531.625      25.243     254.013       0.047       0.047       0.242       1.275       0.044       0.003
 3985.7172      -0.008       2.267       2.516       8.483       0.024       0.014    5920.306    5718.573      24.040     133.080       0.048       0.048       0.201       0.373       0.039       0.009
 3985.5648      -0.006       2.195       2.524       8.483       0.023       0.014    6004.901    5848.632      25.210      88.514       0.060       0.060       0.523       0.395       0.041       0.019
 3985.4124      -0.003       2.177       2.528       8.484       0.023       0.015    6028.863    5872.468      24.820      48.724       0.063       0.063       0.329       0.153       0.037       0.026
 3985.2600      -0.003       2.166       2.532       8.482       0.023       0.015    6009.062    5839.525      23.584      47.374       0.058       0.062       0.212       0.133       0.034       0.028
 3985.1076      -0.004       2.212       2.538       8.485       0.023       0.015    5986.353    5853.569      23.587     131.808       0.044       0.044       0.102       0.261       0.033       0.011
 3984.9552      -0.003       2.259       2.563       8.484       0.021       0.014    5931.507    5898.535      25.065      34.158       0.035       0.046       0.092       0.021       0.029       0.017
 3984.8028      -0.002       2.455       2.593       8.485       0.018       0.014    5817.767    5909.674      30.621      22.478       0.021       0.029       0.004       0.001       0.016       0.013
 3984.6504      -0.002       2.554       2.609       8.482       0.017       0.013    5704.836    5866.121      36.448      16.257       0.015       0.022       0.001       0.000       0.014       0.007
 3984.4980      -0.003       2.625       2.594       8.484       0.018       0.013    5373.388    5480.604      38.523       7.079       0.018       0.036       0.005       0.000       0.013       0.023
 3984.3456       0.007       2.405       2.565       8.485       0.026       0.016    4913.735    4657.263      40.522      38.945       0.032       0.033       0.010       0.007       0.019       0.014
 3984.1932       0.007       2.416       2.526       8.483       0.041       0.039    4571.878    3854.003      50.485      18.462       0.063       0.066       0.033       0.026       0.019       0.047
 3984.0408       0.002       2.882       2.491       8.484       0.052       0.053    4430.782    3466.625      61.681      11.603       0.103       0.115       0.074       0.093       0.020       0.095
 3983.8884       0.001       3.334       2.496       8.484       0.043       0.047    4155.655    3475.844      62.490      12.420       0.104       0.112       0.101       0.097       0.023       0.089
 3983.7360       0.004       3.305       2.536       8.481       0.047       0.026    3901.235    3163.646      60.502      12.763       0.104       0.108       0.087       0.089       0.022       0.086
 3983.5836       0.002       2.889       2.586       8.485       0.077       0.059    3752.068    2533.112      77.438      12.035       0.090       0.094       0.052       0.045       0.019       0.075
 3983.4312       0.002       2.834       2.620       8.485       0.126       0.123    3703.954    1994.287     102.873      13.418       0.042       0.048       0.019       0.004       0.018       0.030
 3983.2788       0.003       3.414       2.614       8.484       0.116       0.148    3716.156    2083.526     118.971       7.620       0.108       0.131       0.039       0.068       0.014       0.117
 3983.1264       0.004       3.875       2.603       8.484       0.070       0.106    4037.669    2833.488     104.815       5.677       0.172       0.228       0.027       0.349       0.007       0.221
 3982.9740       0.002       3.350       2.582       8.484       0.041       0.038    4625.992    3908.188      76.903       4.697       0.200       0.287       0.002       0.598       0.001       0.286
 3982.8216      -0.003       2.759       2.566       8.484       0.026       0.012    5210.509    4938.244      51.403       4.917       0.231       0.325       0.009       1.078       0.003       0.322
 3982.6692      -0.005       2.392       2.549       8.485       0.023       0.010    5500.919    5347.720      37.835       5.986       0.245       0.324       0.083       1.580       0.009       0.315
 3982.5168      -0.010       2.364       2.539       8.483       0.028       0.014    5573.712    5201.035      41.794       7.814       0.174       0.220       0.126       0.577       0.015       0.205
 3982.3644      -0.010       2.332       2.551       8.484       0.033       0.024    5494.429    4923.799      47.993       9.010       0.159       0.195       0.202       0.474       0.021       0.175
 3982.2120      -0.010       2.513       2.561       8.484       0.030       0.027    5407.779    4963.200      52.149       9.784       0.151       0.179       0.231       0.391       0.023       0.155
 3982.0596      -0.011       2.523       2.567       8.485       0.021       0.021    5375.694    5340.279      50.361      11.669       0.143       0.163       0.257       0.386       0.026       0.137
 3981.9072      -0.013       2.569       2.558       8.484       0.017       0.011    5557.380    5738.081      41.887      12.199       0.139       0.157       0.306       0.360       0.029       0.128
 3981.7548      -0.011       2.331       2.554       8.485       0.014       0.008    5731.694    6090.060      36.127       9.742       0.135       0.160       0.218       0.252       0.025       0.136
 3981.6024      -0.013       2.324       2.546       8.483       0.012       0.006    5864.535    6342.130      33.635      10.746       0.136       0.156       0.218       0.274       0.025       0.131
 3981.4500      -0.012       2.370       2.546       8.487       0.012       0.007    5931.292    6376.563      33.808       8.412       0.177       0.211       0.182       0.558       0.018       0.192
 3981.2976      -0.013       2.488       2.544       8.485       0.017       0.008    5962.069    6159.158      35.171       7.104       0.180       0.235       0.312       0.615       0.022       0.213
