~VERSION INFORMATION
VERS.           2.0  :CWLS Log ASCII Standard - VERSION 2.0
WRAP.           NO   :One Line per depth step
CREA. 20000625 21.19 :LAS Creation date <yyyymmdd hh.mm>
#--------------------------------------------------
~WELL INFORMATION
#MNEM.UNIT      DATA             DESCRIPTION
#---- ------ --------------   -----------------------------
STRT .M      4145.7372      :START DEPTH
STOP .M      3918.2040      :STOP DEPTH
STEP .M        -0.1524      :STEP
NULL .          -999.25     :NULL VALUE
COMP .        INPEX BROWSE, LTD.                       :COMPANY
WELL .        GORGONICHTHYS-1                          :WELL
FLD  .        EXPLORATION                              :FIELD
LOC  .        Permit WA-285-P                          :LOCATION
CNTY .        SEDCO-703                                :COUNTY
STAT .        WA                                       :STATE
CTRY .        AUSTRALIA                                :COUNTRY
SRVC .        Schlumberger                             :SERVICE COMPANY
API  .                                                 :API NUMBER
DATE .        13:23:55  Sunday, June 25, 2000          :LOG DATE
UWI  .                                                 :UNIQUE WELL ID
#--------------------------------------------------
~CURVE INFORMATION
#MNEM.UNIT   API CODE DESCRIPTION
#---- -----  -------- -----------------------
DEPTH.M               :DEPTH (BOREHOLE)
DRHO .G/C3            :Bulk Density Correction
PEF  .                :Photoelectric Factor
RHOB .G/C3            :Bulk Density
CALI .IN              :Caliper
TNPH .V/V             :Thermal Neutron Porosity
NPHI .V/V             :Thermal Neutron Porosity (Ratio Method)
CNTC .HZ              :Corrected Near Thermal Counting Rate
CFTC .HZ              :Corrected Far Thermal Counting Rate
GR   .GAPI            :Gamma Ray
T2LM .MS              :T2 Logarithmic Mean
CMRP_3MS.V/V          :CMR 3ms Porosity
TCMR .V/V             :Total CMR Porosity
KTIM .MD              :Permeability from CMR - Timur Model
KSDR .MD              :Permeability from CMR - SDR Model
CMFF .V/V             :CMR Free Fluid
BFV  .V/V             :Bound Fluid Volume
#--------------------------------------------------
~PARAMETER INFORMATION
#MNEM.UNIT    VALUE                      DESCRIPTION
#---- -----   --------------------       ------------------------
PDAT .        L.A.T.                     :Permanent Datum
EPD  .M           0.000000               :Elevation of Permanent Datum above Mean Sea Level
LMF  .          Drill Floor              :Logging Measured From (Name of Logging Elevation Reference)
APD  .M          26.400000               :Elevation of Depth Reference (LMF) above Permanent Datum
#--------------------------------------------------
# 
#    DEPTH       DRHO         PEF        RHOB        CALI        TNPH        NPHI        CNTC        CFTC         GR         T2LM      CMRP_3MS      TCMR        KTIM        KSDR        CMFF         BFV     
#                                                                                                                                                                                                             
~A  
# ...
 3938.4732      -0.003       3.673       2.655      12.527       0.183       0.184    1881.977     774.793      96.677       3.871       0.005       0.011       0.000       0.000       0.000       0.011
 3938.3208      -0.000       3.591       2.655      12.514       0.178       0.187    1866.058     779.096      95.234       1.966       0.005       0.027       0.000       0.000       0.000       0.027
 3938.1684       0.007       3.502       2.652      12.522       0.185       0.188    1816.823     743.203      99.656       2.097       0.006       0.037       0.000       0.000       0.001       0.036
 3938.0160       0.012       3.500       2.648      12.499       0.195       0.204    1756.832     699.681     101.643       2.277       0.008       0.048       0.001       0.000       0.004       0.044
 3937.8636       0.022       3.664       2.634      12.428       0.205       0.211    1716.628     667.218     103.856       2.143       0.007       0.051       0.001       0.000       0.005       0.046
 3937.7112       0.020       3.711       2.626      12.405       0.204       0.212    1689.173     657.212     102.800       2.063       0.005       0.038       0.000       0.000       0.004       0.033
 3937.5588       0.016       3.777       2.621      12.404       0.217       0.206    1722.298     649.781     105.268       3.064       0.008       0.045       0.001       0.000       0.006       0.038
 3937.4064       0.009       3.561       2.637      12.406       0.234       0.205    1771.626     641.563     107.326       1.581       0.003       0.030       0.000       0.000       0.002       0.027
 3937.2540       0.002       3.520       2.648      12.456       0.233       0.214    1828.074     662.456     108.706       1.751       0.003       0.032       0.000       0.000       0.003       0.029
 3937.1016      -0.004       3.615       2.658      12.507       0.229       0.219    1882.166     688.903     107.195       1.578       0.003       0.038       0.000       0.000       0.002       0.036
 3936.9492      -0.006       4.017       2.664      12.507       0.216       0.220    1909.840     720.618     104.641       1.544       0.004       0.029       0.000       0.000       0.004       0.026
 3936.7968      -0.008       4.153       2.656      12.507       0.216       0.219    1897.594     715.258     101.794       1.356       0.003       0.027       0.000       0.000       0.003       0.024
 3936.6444      -0.008       3.841       2.643      12.509       0.220       0.225    1892.825     706.953     102.983       1.197       0.003       0.033       0.000       0.000       0.003       0.030
 3936.4920      -0.005       3.563       2.625      12.599       0.214       0.226    1868.387     707.524     100.383       1.380       0.004       0.044       0.000       0.000       0.002       0.042
 3936.3396      -0.003       3.770       2.617      12.779       0.204       0.217    1848.261     715.277     101.627       1.812       0.009       0.035       0.000       0.000       0.000       0.035
 3936.1872      -0.000       4.192       2.617      12.789       0.195       0.208    1847.028     731.902     101.080       2.333       0.011       0.026       0.000       0.000       0.000       0.026
 3936.0348      -0.000       4.456       2.625      12.872       0.198       0.198    1847.808     725.629     101.906       1.658       0.007       0.021       0.000       0.000       0.000       0.021
 3935.8824       0.000       4.211       2.640      12.924       0.204       0.200    1851.959     716.036     100.777       1.658       0.007       0.021       0.000       0.000       0.000       0.021
 3935.7300       0.000       3.883       2.655      12.921       0.206       0.204    1840.964     708.098      98.319    -999.250    -999.250    -999.250    -999.250    -999.250    -999.250    -999.250
 3935.5776      -0.001       3.859       2.660      12.886       0.201       0.209    1825.500     710.919      98.476    -999.250    -999.250    -999.250    -999.250    -999.250    -999.250    -999.250
 3935.4252      -0.005       3.867       2.649      12.879       0.197       0.211    1802.087     710.196      97.925    -999.250    -999.250    -999.250    -999.250    -999.250    -999.250    -999.250
 3935.2728      -0.003       3.943       2.664      12.820       0.201       0.207    1785.586     696.565      98.283    -999.250    -999.250    -999.250    -999.250    -999.250    -999.250    -999.250
 3935.1204      -0.003       4.093       2.684      12.792       0.210       0.209    1760.220     672.320      97.080    -999.250    -999.250    -999.250    -999.250    -999.250    -999.250    -999.250
 3934.9680      -0.003       4.249       2.699      12.780       0.212       0.211    1754.511     665.558      96.862    -999.250    -999.250    -999.250    -999.250    -999.250    -999.250    -999.250
 3934.8156       0.000       4.174       2.683      12.827       0.214       0.213    1752.260     662.084      96.841    -999.250    -999.250    -999.250    -999.250    -999.250    -999.250    -999.250
 3934.6632       0.005       3.940       2.656      12.903       0.208       0.215    1761.522     674.857      95.470    -999.250    -999.250    -999.250    -999.250    -999.250    -999.250    -999.250
 3934.5108       0.004       3.976       2.626      12.960       0.202       0.210    1783.023     693.321      91.677    -999.250    -999.250    -999.250    -999.250    -999.250    -999.250    -999.250
 3934.3584       0.004       4.318       2.613      12.934       0.188       0.199    1788.064     721.929      87.508    -999.250    -999.250    -999.250    -999.250    -999.250    -999.250    -999.250
 3934.2060       0.002       4.222       2.609      12.895       0.183       0.184    1804.559     738.318      83.406    -999.250    -999.250    -999.250    -999.250    -999.250    -999.250    -999.250
 3934.0536       0.000       3.920       2.622      12.829       0.190       0.184    1806.723     725.963      82.616    -999.250    -999.250    -999.250    -999.250    -999.250    -999.250    -999.250
 3933.9012      -0.004       3.666       2.630      12.814       0.197       0.193    1803.169     711.076      81.581    -999.250    -999.250    -999.250    -999.250    -999.250    -999.250    -999.250
 3933.7488      -0.004       3.541       2.638      12.812       0.200       0.205    1789.436     701.143      80.816    -999.250    -999.250    -999.250    -999.250    -999.250    -999.250    -999.250
 3933.5964      -0.003       3.485       2.640      12.798       0.196       0.203    1790.258     707.971      80.544    -999.250    -999.250    -999.250    -999.250    -999.250    -999.250    -999.250
 3933.4440      -0.003       3.375       2.649      12.786       0.193       0.197    1765.456     704.489      81.158    -999.250    -999.250    -999.250    -999.250    -999.250    -999.250    -999.250
 3933.2916      -0.002       3.474       2.676      12.777       0.197       0.197    1748.327     690.393      81.449    -999.250    -999.250    -999.250    -999.250    -999.250    -999.250    -999.250
 3933.1392      -0.001       3.997       2.688      12.769       0.211       0.207    1731.903     660.118      83.118    -999.250    -999.250    -999.250    -999.250    -999.250    -999.250    -999.250
 3932.9868       0.000       4.235       2.684      12.771       0.226       0.221    1698.656     622.888      83.490    -999.250    -999.250    -999.250    -999.250    -999.250    -999.250    -999.250
 3932.8344      -0.002       4.106       2.651      12.786       0.238       0.236    1663.917     594.433      86.297    -999.250    -999.250    -999.250    -999.250    -999.250    -999.250    -999.250
 3932.6820      -0.003       3.558       2.632      12.781       0.240       0.245    1638.204     581.481      90.293    -999.250    -999.250    -999.250    -999.250    -999.250    -999.250    -999.250
 3932.5296      -0.006       3.657       2.625      12.719       0.239       0.248    1622.478     578.359      94.905    -999.250    -999.250    -999.250    -999.250    -999.250    -999.250    -999.250
